stop_id,stop_name,stop_desc,stop_lat,stop_lon,zone_id,stop_url,stop_street,stop_city,stop_region,stop_postcode
0001,CARICAMENTO/ACQUARIO,,44.410671,8.928418,,,Piazza Caricamento,Genoa,Regione Liguria,16100
0003,GRAMSCI 1/METRO' DARSENA,,44.413368,8.926332,,,Via Antonio Gramsci,Genoa,Regione Liguria,16100
0004,GRAMSCI 2/STATUTO,,44.414719,8.924177,,,Via Antonio Gramsci,Genoa,Regione Liguria,16100
0005,GRAMSCI 3/COMMENDA,,44.415524,8.922028,,,Via Antonio Gramsci,Genoa,Regione Liguria,16100
0006,MARITTIMA/PRINCIPE FS,,44.415497,8.919490,,,Via Alpini d'Italia,Genoa,Regione Liguria,16100
0007,BUOZZI 1/PIAZZA SAN TEODORO,,44.414341,8.913108,,,Via Bruno Buozzi,Genoa,Regione Liguria,16100
0008,BUOZZI 2/METRO-LANTERNA,,44.413555,8.911274,,,Piazza Dinegro,Genoa,Regione Liguria,16100
0009,FRANCIA 1/MATITONE,,44.410469,8.905462,,,Via di Francia,Genoa,Regione Liguria,16100
0010,FRANCIA 2/STAZIONE FS,,44.409126,8.900817,,,Via di Francia,Genoa,Regione Liguria,16100
0011,BURANELLO 1/BARABINO,,44.409058,8.896314,,,Via Giacomo Buranello,Genoa,Regione Liguria,16100
0012,BURANELLO 2/GIOVANETTI,,44.410545,8.891861,,,Via Giacomo Buranello,Genoa,Regione Liguria,16100
0013,AVIO 1/MOLTENI,,44.411911,8.887004,,,Via Federico Avio,Genoa,Regione Liguria,16100
0014,PACINOTTI/FIUMARA,,44.414280,8.883670,,,Via Antonio Pacinotti,Genoa,Regione Liguria,16100
0015,PIERAGOSTINI/FIUMARA,,44.414883,8.881797,,,Via Raffaele Pieragostini,Genoa,Regione Liguria,16100
0016,CORNIGLIANO 1/GIARDINI MELIS,,44.416119,8.873957,,,Via Cornigliano,Genoa,Regione Liguria,16100
0017,CORNIGLIANO 2/RIZZOLIO,,44.415913,8.871523,,,Via Cornigliano,Genoa,Regione Liguria,16100
0018,CORNIGLIANO 3/PIAZZA CONTI,,44.415562,8.867803,,,Via Cornigliano,Genoa,Regione Liguria,16100
0019,CORNIGLIANO 4/STAZIONE FS,,44.415333,8.865022,,,Via Cornigliano,Genoa,Regione Liguria,16100
0020,SIFFREDI 2/ACCIAIO,,44.420128,8.858760,,,Via Angelo Siffredi,Genoa,Regione Liguria,16100
0021,SIFFREDI 3/CALCINARA,,44.421318,8.857109,,,Via Angelo Siffredi,Genoa,Regione Liguria,16100
0022,HERMADA/MENOTTI,,44.423405,8.852964,,,Via Hermada,Genoa,Regione Liguria,16100
0023,PUCCINI 1/SESTRI FS AEROPORTO,,44.422310,8.849436,,,Via Giacomo Puccini,Genoa,Regione Liguria,16100
0024,PUCCINI 2/SESTRI FS,,44.423138,8.846321,,,Via Giacomo Puccini,Genoa,Regione Liguria,16100
0025,SOLIMAN/CERRUTI,,44.424400,8.844149,,,Via Giacomo Soliman,Genoa,Regione Liguria,16100
0026,MERANO 1/VILLA ROSSI,,44.426167,8.843225,,,Via Merano,Genoa,Regione Liguria,16100
0027,MERANO 2/MONFALCONE,,44.426838,8.840454,,,Via Merano,Genoa,Regione Liguria,16100
0028,MERANO 3/AMIU,,44.427467,8.835768,,,Via Merano,Genoa,Regione Liguria,16100
0029,MULTEDO/VILLA CHIESA,,44.426220,8.830168,,,Via Multedo di Pegli,Genoa,Regione Liguria,16100
0030,RONCHI/VIGILI DEL FUOCO,,44.425667,8.826967,,,Via Multedo di Pegli,Genoa,Regione Liguria,16100
0031,LUNGOMARE DI PEGLI 1/VARENNA,,44.424885,8.821196,,,Lungomare di Pegli,Genoa,Regione Liguria,16100
0032,LUNGOMARE2/FS-MUSEIPALLAVICINI,,44.424850,8.815638,,,Lungomare di Pegli,Genoa,Regione Liguria,16100
0033,PEGLI 1/PORTICCIOLO,,44.424641,8.812321,,,Via Pegli,Genoa,Regione Liguria,16100
0034,PEGLI 2/RISVEGLIO,,44.423584,8.807083,,,Via Pegli,Genoa,Regione Liguria,16100
0035,PEGLI 4/LIDO,,44.424404,8.801941,,,Via Pegli,Genoa,Regione Liguria,16100
0036,PRA' 1/CASTELLUCCIO,,44.424843,8.799378,,,Via Pegli,Genoa,Regione Liguria,16100
0037,PRA' 3/FERRIERE,,44.425941,8.793636,,,Via Prà,Genoa,Regione Liguria,16100
0038,PRA' 4/PRA' FS,,44.426579,8.789221,,,Via Prà,Genoa,Regione Liguria,16100
0039,PRA' 5/CORDANIERI,,44.427071,8.785978,,,Via Prà,Genoa,Regione Liguria,16100
0040,PRA' 6/LAURA,,44.427517,8.779722,,,Via Prà,Genoa,Regione Liguria,16100
0041,PRA' 7/PALMARO CENTRO,,44.427505,8.773957,,,Via Prà,Genoa,Regione Liguria,16100
0042,PRA' 8/DE MARI,,44.427868,8.771554,,,Via Prà,Genoa,Regione Liguria,16100
0043,PRA' 9/VILLA PODESTA',,44.428131,8.766548,,,Via Prà,Genoa,Regione Liguria,16100
0044,PRA' 10/VERRINA,,44.428413,8.762185,,,Via Prà,Genoa,Regione Liguria,16100
0045,VOLTRI/VOLTRI FS,,44.428898,8.759127,,,Via Voltri,Genoa,Regione Liguria,16100
0046,VERITA'/VOLTRI FS,,44.428482,8.755344,,,Via Don Giovanni Verità,Genoa,Regione Liguria,16100
0047,CAMOZZINI 1/VILLA DUCHESSA,,44.428448,8.750944,,,Via Carlo Camozzini,Genoa,Regione Liguria,16100
0048,CAMOZZINI 2/PRATI,,44.428612,8.747858,,,Via Carlo Camozzini,Genoa,Regione Liguria,16100
0049,CAMOZZINI 3/CADUTI,,44.428143,8.745120,,,Via Carlo Camozzini,Genoa,Regione Liguria,16100
0050,CAMOZZINI/DALL'ORTO,,44.427376,8.743212,,,Via Carlo Camozzini,Genoa,Regione Liguria,16100
0051,CAMOZZINI 2/CADUTI,,44.428169,8.745475,,,Via Carlo Camozzini,Genoa,Regione Liguria,16100
0052,CAMOZZINI 3/ODICINI,,44.428463,8.749455,,,Via Carlo Camozzini,Genoa,Regione Liguria,16100
0053,CAMOZZINI 4/VILLA DUCHESSA,,44.428284,8.751525,,,Via Carlo Camozzini,Genoa,Regione Liguria,16100
0054,VERITA'/VOLTRI FS,,44.428379,8.755668,,,Via Don Giovanni Verità,Genoa,Regione Liguria,16100
0055,VOLTRI/VOLTRI FS,,44.428684,8.760027,,,Via Voltri,Genoa,Regione Liguria,16100
0056,PRA' 1/VERRINA,,44.428131,8.763851,,,Via Prà,Genoa,Regione Liguria,16100
0057,PRA' 2/VILLA PODESTA',,44.427986,8.767262,,,Via Prà,Genoa,Regione Liguria,16100
0058,PRA' 3/DE MARI,,44.427792,8.771286,,,Via Prà,Genoa,Regione Liguria,16100
0059,PRA' 4/PALMARO CENTRO,,44.427322,8.774429,,,Via Prà,Genoa,Regione Liguria,16100
0060,PRA' 5/LAURA,,44.427330,8.779619,,,Via Prà,Genoa,Regione Liguria,16100
0061,PRA' 6/CORDANIERI,,44.426823,8.786268,,,Via Prà,Genoa,Regione Liguria,16100
0062,PRA' 7/PRA' FS,,44.426498,8.789277,,,Via Prà,Genoa,Regione Liguria,16100
0063,PRA' 8/FERRIERE,,44.425789,8.793674,,,Via Prà,Genoa,Regione Liguria,16100
0064,PEGLI 1/CASTELLUCCIO,,44.424618,8.800028,,,Via Pegli,Genoa,Regione Liguria,16100
0065,PEGLI 2/LIDO,,44.424004,8.803532,,,Via Pegli,Genoa,Regione Liguria,16100
0066,PEGLI 3/RISVEGLIO,,44.423210,8.807417,,,Via Pegli,Genoa,Regione Liguria,16100
0067,PEGLI 4/PORTICCIOLO,,44.424625,8.812596,,,Via Pegli,Genoa,Regione Liguria,16100
0068,LUNGOMARE1/FS-MUSEIPALLAVICINI,,44.424919,8.816893,,,Lungomare di Pegli,Genoa,Regione Liguria,16100
0069,LUNGOMARE DI PEGLI 2/VARENNA,,44.424679,8.819118,,,Lungomare di Pegli,Genoa,Regione Liguria,16100
0070,RONCHI/VIGILI DEL FUOCO,,44.425312,8.825922,,,Via Ronchi,Genoa,Regione Liguria,16100
0071,MULTEDO/VILLA CHIESA,,44.426029,8.831294,,,Via Multedo di Pegli,Genoa,Regione Liguria,16100
0072,MERANO 1/AMIU,,44.427319,8.836301,,,Via Merano,Genoa,Regione Liguria,16100
0073,MERANO 2/MONFALCONE,,44.426651,8.840718,,,Via Merano,Genoa,Regione Liguria,16100
0074,MERANO 3/VILLA ROSSI,,44.426056,8.843132,,,Via Merano,Genoa,Regione Liguria,16100
0075,MENOTTI 2/CHIESA,,44.424252,8.849061,,,Via Ciro Menotti,Genoa,Regione Liguria,16100
0076,MENOTTI 3/HERMADA,,44.423378,8.852268,,,Via Ciro Menotti,Genoa,Regione Liguria,16100
0077,SIFFREDI 1/CALCINARA,,44.421535,8.856711,,,Via Angelo Siffredi,Genoa,Regione Liguria,16100
0078,SIFFREDI 2/ACCIAIO,,44.420303,8.858294,,,Via Angelo Siffredi,Genoa,Regione Liguria,16100
0079,CORNIGLIANO 1/SAVIO,,44.415394,8.867133,,,Via Cornigliano,Genoa,Regione Liguria,16100
0080,CORNIGLIANO 2/PIAZZA CONTI,,44.415508,8.868635,,,Via Cornigliano,Genoa,Regione Liguria,16100
0081,CORNIGLIANO 2/BRIGHENTI,,44.415936,8.872857,,,Via Cornigliano,Genoa,Regione Liguria,16100
0082,CORNIGLIANO 3/MASSENA,,44.416100,8.875029,,,Via Cornigliano,Genoa,Regione Liguria,16100
0083,PIERAGOSTINI/FIUMARA,,44.414421,8.883149,,,Via Raffaele Pieragostini,Genoa,Regione Liguria,16100
0084,PACINOTTI/FIUMARA,,44.412739,8.884516,,,Via Antonio Pacinotti,Genoa,Regione Liguria,16100
0085,AVIO/MOLTENI,,44.411839,8.886524,,,Via Federico Avio,Genoa,Regione Liguria,16100
0086,CANTORE 1/MONTANO,,44.412663,8.889579,,,Via Antonio Cantore,Genoa,Regione Liguria,16100
0087,CANTORE 2/LA SPEZIA,,44.411552,8.893598,,,Via Antonio Cantore,Genoa,Regione Liguria,16100
0088,CANTORE 4/S.B. DEL FOSSATO,,44.410374,8.898428,,,Via Antonio Cantore,Genoa,Regione Liguria,16100
0089,CANTORE 6/MATITONE,,44.411728,8.906962,,,Via Antonio Cantore,Genoa,Regione Liguria,16100
0090,DINEGRO/TRAGHETTI-LANTERNA,,44.412426,8.909649,,,Via Milano,Genoa,Regione Liguria,16100
0091,BUOZZI/METRO' DINEGRO,,44.413937,8.912330,,,Via Bruno Buozzi,Genoa,Regione Liguria,16100
0092,MARITTIMA/PRINCIPE FS,,44.415249,8.918525,,,Via Adua,Genoa,Regione Liguria,16100
0093,GRAMSCI 2/METRO' DARSENA,,44.413757,8.925360,,,Via Antonio Gramsci,Genoa,Regione Liguria,16100
0094,THAON DI REVEL/BRIGNOLE FS,,44.405773,8.945749,,,Viale Paolo Thaon de Revel,Genoa,Regione Liguria,16100
0096,AVIO/FIUMARA,,44.412113,8.885444,,,Via Federico Avio,Genoa,Regione Liguria,16100
0097,SULFUREE 1/AUTOSTRADA,,44.428444,8.769557,,,Via alle Sorgenti Sulfuree,Genoa,Regione Liguria,16100
0100,DINEGRO/TERMINAL TRAGHETTI,,44.412346,8.909227,,,Via Milano,Genoa,Regione Liguria,16100
0101,CANTORE 2/COL,,44.411095,8.904682,,,Via Antonio Cantore,Genoa,Regione Liguria,16100
0102,CANTORE 3/S.B. DEL FOSSATO,,44.410545,8.898829,,,Via Antonio Cantore,Genoa,Regione Liguria,16100
0103,CANTORE 5/VILLA SCASSI,,44.411552,8.895111,,,Via Antonio Cantore,Genoa,Regione Liguria,16100
0104,CANTORE 6/RONCO,,44.412224,8.891920,,,Via Antonio Cantore,Genoa,Regione Liguria,16100
0105,MONTANO/SAMPIERDARENA FS,,44.413094,8.888226,,,Piazza Nicolò Montano,Genoa,Regione Liguria,16100
0107,SAMPIERDARENA 1/MOLTENI,,44.410866,8.885847,,,Via San Pier d'Arena,Genoa,Regione Liguria,16100
0108,SAMPIERDARENA 2/MONASTERO,,44.410007,8.889278,,,Via San Pier d'Arena,Genoa,Regione Liguria,16100
0109,BARABINO/BURANELLO,,44.408524,8.897612,,,Piazza Nicolò Barabino,Genoa,Regione Liguria,16100
0110,FRANCIA 1/WTC,,44.408901,8.900669,,,Via di Francia,Genoa,Regione Liguria,16100
0111,PINETTI 3/,,44.420563,8.969794,,,Via Piero Pinetti,Genoa,Regione Liguria,16100
0112,PRINCIPE FS/CAPOLINEA,,44.416759,8.921912,,,Piazza Acquaverde,Genoa,Regione Liguria,16100
0113,DORIA/METRO' PRINCIPE,,44.416401,8.919827,,,Via Andrea Doria,Genoa,Regione Liguria,16100
0114,SAN BENEDETTO/AMBA ALAGI,,44.415695,8.915779,,,Via San Benedetto,Genoa,Regione Liguria,16100
0115,FRANCIA 2/MATITONE,,44.410225,8.905492,,,Strada Aldo Moro,Genoa,Regione Liguria,16100
0116,BRIGNOLE FS/CAPOLINEA,,44.406235,8.946278,,,Piazza Giuseppe Verdi,Genoa,Regione Liguria,16100
0117,BRIGATA BISAGNO/CADORNA,,44.403614,8.946648,,,Viale Brigata Bisagno,Genoa,Regione Liguria,16100
0118,SAFFI 1/QUESTURA,,44.399860,8.944535,,,Corso Aurelio Saffi,Genoa,Regione Liguria,16100
0119,SAFFI 2/PESCATORI,,44.397751,8.943312,,,Corso Aurelio Saffi,Genoa,Regione Liguria,16100
0120,SAFFI 3/MUSEO VILLA CROCE,,44.397724,8.939131,,,Corso Aurelio Saffi,Genoa,Regione Liguria,16100
0121,SAFFI 4/FIODOR,,44.398548,8.935355,,,Corso Aurelio Saffi,Genoa,Regione Liguria,16100
0122,QUADRIO 1/ORTIZ,,44.402405,8.931291,,,Corso Maurizio Quadrio,Genoa,Regione Liguria,16100
0123,QUADRIO 2/MARINA,,44.403652,8.930035,,,Corso Maurizio Quadrio,Genoa,Regione Liguria,16100
0124,CAVOUR/VARCO QUADRIO,,44.406082,8.927784,,,Piazza Camillo Benso Conte di Cavour,Genoa,Regione Liguria,16100
0125,SOLIMAN/MENOTTI,,44.425274,8.844291,,,Via Giacomo Soliman,Genoa,Regione Liguria,16100
0126,CAVOUR/VARCO QUADRIO,,44.406166,8.927540,,,Piazza Camillo Benso Conte di Cavour,Genoa,Regione Liguria,16100
0127,QUADRIO/MARINA,,44.404083,8.929409,,,Corso Maurizio Quadrio,Genoa,Regione Liguria,16100
0128,SAFFI 2/RIVOLI,,44.400387,8.932667,,,Corso Aurelio Saffi,Genoa,Regione Liguria,16100
0129,SAFFI 3/FIODOR,,44.398052,8.936442,,,Corso Aurelio Saffi,Genoa,Regione Liguria,16100
0130,SAFFI 4/MUSEO VILLA CROCE,,44.397503,8.939615,,,Corso Aurelio Saffi,Genoa,Regione Liguria,16100
0131,SAFFI 5/PESCATORI,,44.397152,8.942930,,,Corso Aurelio Saffi,Genoa,Regione Liguria,16100
0132,SAFFI 6/QUESTURA,,44.399876,8.944705,,,Corso Aurelio Saffi,Genoa,Regione Liguria,16100
0133,DIAZ 2/PIAZZA DELLA VITTORIA,,44.401978,8.943299,,,Via Armando Diaz,Genoa,Regione Liguria,16100
0134,FIUME/THAON DI REVEL,,44.405602,8.944901,,,Via Fiume,Genoa,Regione Liguria,16100
0135,ARIMONDI/POLI,,44.495522,8.904432,,,Piazza Giuseppe Arimondi,Genoa,Regione Liguria,16100
0137,CANEPARI 1/BRIN,,44.429260,8.893430,,,Via Teresio Mario Canepari,Genoa,Regione Liguria,16100
0138,CANEPARI 2/DANDOLO,,44.432064,8.893199,,,Via Teresio Mario Canepari,Genoa,Regione Liguria,16100
0139,CANEPARI 3/PIOMBELLI,,44.433598,8.893046,,,Via Teresio Mario Canepari,Genoa,Regione Liguria,16100
0140,PALLAVICINI/VEZZANI,,44.437355,8.892681,,,Piazza Durazzo Pallavicini,Genoa,Regione Liguria,16100
0141,RIVAROLO 1/CARNIA,,44.441113,8.891954,,,Via Rivarolo,Genoa,Regione Liguria,16100
0142,RIVAROLO 2/LANZA,,44.443691,8.892908,,,Via Rivarolo,Genoa,Regione Liguria,16100
0143,RIVAROLO 3/CENTRO COMMERCIALE,,44.446548,8.893775,,,Via Rivarolo,Genoa,Regione Liguria,16100
0144,RIVAROLO 4/TEGLIA,,44.448002,8.894126,,,Via Rivarolo,Genoa,Regione Liguria,16100
0145,RIVARA/MONTE SEI BUSI,,44.450237,8.894227,,,Via Teglia,Genoa,Regione Liguria,16100
0146,TEGLIA 1/MARITANO,,44.452477,8.894994,,,Via Teglia,Genoa,Regione Liguria,16100
0147,RETA 1/GIRO DEL VENTO,,44.454838,8.898416,,,Via Costantino Reta,Genoa,Regione Liguria,16100
0148,RETA 2/VIGILI DEL FUOCO,,44.456860,8.900262,,,Via Costantino Reta,Genoa,Regione Liguria,16100
0149,RISSOTTO/BOLZANETO FS,,44.458794,8.901352,,,Via Pasquale Pastorino,Genoa,Regione Liguria,16100
0150,COLANO/OSPEDALE PASTORINO,,44.463352,8.902409,,,Via Giuseppe Colano,Genoa,Regione Liguria,16100
0152,FERRIERE BRUZZO/MERCATO,,44.467094,8.906243,,,Via Ferriere Bruzzo,Genoa,Regione Liguria,16100
0153,BRIGNOLE FS/CAPOLINEA,,44.405876,8.946848,,,Piazza Giuseppe Verdi,Genoa,Regione Liguria,16100
0154,MORASSO/CAPOLINEA,,44.470024,8.904849,,,Via Giuseppe Morasso,Genoa,Regione Liguria,16100
0155,FERRIERE BRUZZO 2/BRATTE,,44.465172,8.904472,,,Via Ferriere Bruzzo,Genoa,Regione Liguria,16100
0156,OSPEDALE PASTORINO/,,44.463226,8.901933,,,Via Giuseppe Colano,Genoa,Regione Liguria,16100
0157,RISMONDO/BOLZANETO FS,,44.459579,8.901665,,,Via Pasquale Pastorino,Genoa,Regione Liguria,16100
0158,RETA 1/BARCHETTA,,44.456207,8.899754,,,Via Costantino Reta,Genoa,Regione Liguria,16100
0159,RETA 2/GIRO DEL VENTO,,44.454895,8.897911,,,Via Costantino Reta,Genoa,Regione Liguria,16100
0160,TEGLIA 2/BARABINI,,44.451706,8.894308,,,Via Teglia,Genoa,Regione Liguria,16100
0161,TEGLIA 3/RIVARA,,44.449802,8.894109,,,Via Teglia,Genoa,Regione Liguria,16100
0162,RIVAROLO 1/TEGLIA,,44.447762,8.893959,,,Via Rivarolo,Genoa,Regione Liguria,16100
0163,RIVAROLO 2/CENTRO COMMERCIALE,,44.445820,8.893405,,,Via Rivarolo,Genoa,Regione Liguria,16100
0164,RIVAROLO 3/LANZA,,44.443836,8.892736,,,Via Rivarolo,Genoa,Regione Liguria,16100
0165,RIVAROLO 4/CARNIA,,44.440956,8.891711,,,Via Rivarolo,Genoa,Regione Liguria,16100
0166,PALLAVICINI/CELESIA,,44.437805,8.891871,,,Via Teresa Durazzo Pallavicini,Genoa,Regione Liguria,16100
0167,JORI 1/PONGOLI,,44.433445,8.892311,,,Via Germano Jori,Genoa,Regione Liguria,16100
0168,JORI 2/DANDOLO,,44.431442,8.891844,,,Via Germano Jori,Genoa,Regione Liguria,16100
0169,JORI 3/BRIN,,44.429058,8.892961,,,Via Germano Jori,Genoa,Regione Liguria,16100
0170,CARICAMENTO/ACQUARIO,,44.410698,8.928346,,,Piazza Caricamento,Genoa,Regione Liguria,16100
0171,MONTANO/SAMPIERDARENA FS,,44.412857,8.888159,,,Piazza Nicolò Montano,Genoa,Regione Liguria,16100
0172,RETI/STORACE,,44.415653,8.885813,,,Via Paolo Reti,Genoa,Regione Liguria,16100
0173,FILLAK 1/MASNATA,,44.418392,8.886233,,,Via Walter Fillak,Genoa,Regione Liguria,16100
0174,FILLAK 2/CAMPASSO,,44.420128,8.887485,,,Via Walter Fillak,Genoa,Regione Liguria,16100
0175,FILLAK 3/CAPELLO,,44.423897,8.890141,,,Via Walter Fillak,Genoa,Regione Liguria,16100
0176,FILLAK 4/CERTOSA,,44.426537,8.891953,,,Via Walter Fillak,Genoa,Regione Liguria,16100
0177,SAN QUIRICO 1/MORIGALLO,,44.470711,8.903480,,,Via San Quirico,Genoa,Regione Liguria,16100
0178,SAN QUIRICO 2/SERRO,,44.474514,8.900633,,,Via San Quirico,Genoa,Regione Liguria,16100
0179,SAN QUIRICO 3/PONTE BARBIERI,,44.476723,8.900637,,,Via San Quirico,Genoa,Regione Liguria,16100
0180,SAN QUIRICO 4/BUDULLI,,44.479996,8.900655,,,Via San Quirico,Genoa,Regione Liguria,16100
0181,SAN QUIRICO 5/RIO FULLE,,44.483334,8.900934,,,Via San Quirico,Genoa,Regione Liguria,16100
0182,SAN QUIRICO 6/CHIESA,,44.486465,8.900406,,,Via San Quirico,Genoa,Regione Liguria,16100
0183,SAN QUIRICO 7/FORESTALE,,44.489273,8.901564,,,Via San Quirico,Genoa,Regione Liguria,16100
0184,ANFOSSI 1/,,44.491989,8.904589,,,Via Paolo Anfossi,Genoa,Regione Liguria,16100
0185,ANFOSSI 2/PONTEDECIMO FS,,44.495098,8.905245,,,Via Paolo Anfossi,Genoa,Regione Liguria,16100
0186,ANFOSSI 3/POLI,,44.498001,8.904241,,,Via Paolo Anfossi,Genoa,Regione Liguria,16100
0187,PIAZZA PONTEDECIMO/DEL CANTO,,44.499508,8.903496,,,Piazza Pontedecimo,Genoa,Regione Liguria,16100
0188,GALLINO/CAPOLINEA,,44.500916,8.903881,,,Via Natale Gallino,Genoa,Regione Liguria,16100
0189,PIAZZA PONTEDECIMO/PERINO,,44.499771,8.903079,,,Piazza Pontedecimo,Genoa,Regione Liguria,16100
0190,ANFOSSI 1/POLI,,44.497135,8.904344,,,Via Paolo Anfossi,Genoa,Regione Liguria,16100
0191,ANFOSSI 3/PONTEDECIMO FS,,44.494076,8.905105,,,Via Paolo Anfossi,Genoa,Regione Liguria,16100
0192,ANFOSSI 4/,,44.492504,8.904777,,,Via Paolo Anfossi,Genoa,Regione Liguria,16100
0193,SAN QUIRICO 1/FORESTALE,,44.489944,8.902009,,,Via San Quirico,Genoa,Regione Liguria,16100
0194,SAN QUIRICO 2/CHIESA,,44.485798,8.900226,,,Via San Quirico,Genoa,Regione Liguria,16100
0195,SAN QUIRICO 3/RIO FULLE,,44.483089,8.900734,,,Via San Quirico,Genoa,Regione Liguria,16100
0196,SAN QUIRICO 4/PONTE BARBIERI,,44.476963,8.900521,,,Via San Quirico,Genoa,Regione Liguria,16100
0197,SAN QUIRICO 5/SERRO,,44.474461,8.900457,,,Via San Quirico,Genoa,Regione Liguria,16100
0198,SAN QUIRICO 6/MORIGALLO,,44.470333,8.903605,,,Via San Quirico,Genoa,Regione Liguria,16100
0199,FERRIERE BRUZZO 1/MERCATO,,44.466484,8.905774,,,Via Ferriere Bruzzo,Genoa,Regione Liguria,16100
0200,FILLAK 1/CERTOSA,,44.426903,8.892015,,,Via Walter Fillak,Genoa,Regione Liguria,16100
0201,FILLAK 2/CAPELLO,,44.422749,8.889144,,,Via Walter Fillak,Genoa,Regione Liguria,16100
0202,FILLAK 3/CAMPASSO,,44.419823,8.887070,,,Via Walter Fillak,Genoa,Regione Liguria,16100
0203,RETI 1/MASNATA,,44.417858,8.885687,,,Via Paolo Reti,Genoa,Regione Liguria,16100
0204,RETI 2/DEGOLA,,44.415188,8.885825,,,Via Paolo Reti,Genoa,Regione Liguria,16100
0205,SAMPIERDARENA 3/GIOBERTI,,44.409130,8.892741,,,Via San Pier d'Arena,Genoa,Regione Liguria,16100
0207,TURATI/METRO' SAN GIORGIO,,44.408413,8.928285,,,Sconosciuto,Genoa,Regione Liguria,16100
0209,BRIGATA BISAGNO 1/BARABINO,,44.401489,8.946228,,,Viale Brigata Bisagno,Genoa,Regione Liguria,16100
0210,BRIGATA BISAGNO 2/BUENOS AIRES,,44.402973,8.946938,,,Viale Brigata Bisagno,Genoa,Regione Liguria,16100
0211,DUCA D'AOSTA/BRIGNOLE FS,,44.404850,8.947831,,,Viale Duca D'Aosta Emanuele Filiberto,Genoa,Regione Liguria,16100
0212,CANEVARI/SANT'AGATA METRO',,44.408073,8.950083,,,Via Canevari,Genoa,Regione Liguria,16100
0213,MORESCO 1/PIAZZA FIRPO,,44.411186,8.952993,,,Via Giacomo Moresco,Genoa,Regione Liguria,16100
0214,MORESCO 2/ROMAGNOSI,,44.413116,8.953156,,,Via Giacomo Moresco,Genoa,Regione Liguria,16100
0215,BOBBIO 1/SCALINATA MONTALDO,,44.416721,8.949235,,,Via Bobbio,Genoa,Regione Liguria,16100
0216,BOBBIO 2/PONTETTO,,44.418125,8.947805,,,Via Bobbio,Genoa,Regione Liguria,16100
0217,BOBBIO 3/DA PASSANO,,44.421539,8.946944,,,Via Bobbio,Genoa,Regione Liguria,16100
0218,BOBBIO 4/MONTALDO,,44.423439,8.947134,,,Via Bobbio,Genoa,Regione Liguria,16100
0219,BOBBIO 5/CADERIVA,,44.425343,8.947442,,,Giardini G.B. Cavagnaro,Genoa,Regione Liguria,16100
0220,PIACENZA 1/CIMITERO STAGLIENO,,44.427917,8.950526,,,Via Piacenza,Genoa,Regione Liguria,16100
0221,PIACENZA 3/ZUCCHE,,44.430470,8.957043,,,Via Piacenza,Genoa,Regione Liguria,16100
0222,PIACENZA 4/PONTE BEZZECCA,,44.432056,8.958695,,,Via Piacenza,Genoa,Regione Liguria,16100
0223,PIACENZA 5/PONTE VERONELLI,,44.434109,8.960802,,,Via Piacenza,Genoa,Regione Liguria,16100
0224,PIACENZA 6/PONTE CARREGA,,44.436298,8.962053,,,Via Piacenza,Genoa,Regione Liguria,16100
0225,PIACENZA 7/SAN SEBASTIANO,,44.438480,8.962470,,,Via Piacenza,Genoa,Regione Liguria,16100
0226,EMILIA 1/PONTE FERITORE,,44.442566,8.964284,,,Via Emilia,Genoa,Regione Liguria,16100
0227,EMILIA 2/FOSSATO CICALA,,44.443550,8.965221,,,Via Emilia,Genoa,Regione Liguria,16100
0228,EMILIA 3/SAN GOTTARDO,,44.445091,8.966940,,,Via Emilia,Genoa,Regione Liguria,16100
0229,EMILIA 4/SCIORBA,,44.446411,8.968707,,,Via Emilia,Genoa,Regione Liguria,16100
0230,EMILIA 5/FIDENZA,,44.447578,8.970243,,,Via Emilia,Genoa,Regione Liguria,16100
0231,EMILIA 6/ROCCA,,44.449017,8.972068,,,Via Emilia,Genoa,Regione Liguria,16100
0232,MOLASSANA 2/GEIRATO,,44.453945,8.979465,,,Via Molassana,Genoa,Regione Liguria,16100
0233,MOLASSANA 3/GHERZI,,44.454460,8.982875,,,Via Molassana,Genoa,Regione Liguria,16100
0234,MOLASSANA 4/BOSCO,,44.454350,8.986570,,,Via Molassana,Genoa,Regione Liguria,16100
0235,MOLASSANA 5/COSTA DI SAN SIRO,,44.453636,8.989224,,,Via Molassana,Genoa,Regione Liguria,16100
0236,STRUPPA 1/GIRO DEL FULLO,,44.452278,8.992024,,,Via Struppa,Genoa,Regione Liguria,16100
0237,STRUPPA 2/SAN BAZA',,44.449646,8.993886,,,Via Struppa,Genoa,Regione Liguria,16100
0238,STRUPPA 3/LIGORNA,,44.448593,8.997805,,,Via Struppa,Genoa,Regione Liguria,16100
0239,STRUPPA 4/LUCARNO,,44.447811,9.000870,,,Via Struppa,Genoa,Regione Liguria,16100
0240,STRUPPA 5/DORIA,,44.447491,9.003660,,,Via Struppa,Genoa,Regione Liguria,16100
0241,STRUPPA 6/CRETO,,44.447971,9.006358,,,Via Struppa,Genoa,Regione Liguria,16100
0242,STRUPPA 7/ROSATA,,44.448605,9.009386,,,Via Struppa,Genoa,Regione Liguria,16100
0243,STRUPPA 8/TROSSARELLI,,44.449013,9.011384,,,Via Struppa,Genoa,Regione Liguria,16100
0244,STRUPPA 9/CANOVA,,44.449715,9.015152,,,Via Struppa,Genoa,Regione Liguria,16100
0245,STRUPPA 10/SUPPINI,,44.449654,9.017653,,,Via Struppa,Genoa,Regione Liguria,16100
0246,PRATO/PIAN MARTELLO,,44.449593,9.021047,,,Piazzale Brigate Severino Volante,Genoa,Regione Liguria,16100
0247,STRUPPA 2/CANOVA,,44.449677,9.014094,,,Via Struppa,Genoa,Regione Liguria,16100
0248,STRUPPA 3/TROSSARELLI,,44.449078,9.011209,,,Via Struppa,Genoa,Regione Liguria,16100
0249,STRUPPA 4/ROSATA,,44.448547,9.008564,,,Via Struppa,Genoa,Regione Liguria,16100
0250,STRUPPA 5/CRETO,,44.448166,9.006721,,,Via Struppa,Genoa,Regione Liguria,16100
0251,STRUPPA 6/DORIA,,44.447575,9.003323,,,Via Struppa,Genoa,Regione Liguria,16100
0252,STRUPPA 7/LUCARNO,,44.448185,8.999791,,,Via Struppa,Genoa,Regione Liguria,16100
0253,STRUPPA 8/LIGORNA,,44.448853,8.997255,,,Via Struppa,Genoa,Regione Liguria,16100
0254,STRUPPA 9/SAN BAZA',,44.449532,8.994637,,,Via Struppa,Genoa,Regione Liguria,16100
0255,STRUPPA 10/GIRO DEL FULLO,,44.452305,8.992190,,,Via Struppa,Genoa,Regione Liguria,16100
0256,MOLASSANA 1/COSTA DI SAN SIRO,,44.453884,8.988685,,,Via Molassana,Genoa,Regione Liguria,16100
0257,MOLASSANA 2/BOSCO,,44.454670,8.985535,,,Via Molassana,Genoa,Regione Liguria,16100
0258,MOLASSANA 3/GHERZI,,44.454498,8.982250,,,Via Molassana,Genoa,Regione Liguria,16100
0259,MOLASSANA 4/GEIRATO,,44.453922,8.979012,,,Via Molassana,Genoa,Regione Liguria,16100
0260,MOLASSANA 5/EMILIA,,44.451691,8.974543,,,Via Molassana,Genoa,Regione Liguria,16100
0261,PIACENZA 1/ROCCA,,44.449051,8.970902,,,Via Piacenza,Genoa,Regione Liguria,16100
0262,PIACENZA 2/FIDENZA,,44.447659,8.968786,,,Via Piacenza,Genoa,Regione Liguria,16100
0263,PIACENZA 3/SAN GOTTARDO,,44.445999,8.966387,,,Via Piacenza,Genoa,Regione Liguria,16100
0264,PIACENZA 4/FOSSATO CICALA,,44.444344,8.964846,,,Via Piacenza,Genoa,Regione Liguria,16100
0265,PIACENZA 5/PONTE FERITORE,,44.442295,8.963534,,,Via Piacenza,Genoa,Regione Liguria,16100
0266,PIACENZA 6/SAN SEBASTIANO,,44.437775,8.962088,,,Via Piacenza,Genoa,Regione Liguria,16100
0267,PIACENZA 7/PONTE CARREGA,,44.436314,8.961922,,,Via Piacenza,Genoa,Regione Liguria,16100
0268,PIACENZA 8/PONTE VERONELLI,,44.434330,8.960876,,,Via Piacenza,Genoa,Regione Liguria,16100
0269,PIACENZA 9/PONTE BEZZECCA,,44.432476,8.958946,,,Via Piacenza,Genoa,Regione Liguria,16100
0270,PIACENZA 10/ZUCCHE,,44.430218,8.956495,,,Via Piacenza,Genoa,Regione Liguria,16100
0271,PIACENZA 12/CIMITERO STAGLIENO,,44.427879,8.949808,,,Via Piacenza,Genoa,Regione Liguria,16100
0272,BOBBIO 1/CADERIVA,,44.424603,8.947144,,,Via Bobbio,Genoa,Regione Liguria,16100
0273,BOBBIO 2/MONTALDO,,44.423256,8.946940,,,Via Bobbio,Genoa,Regione Liguria,16100
0274,BOBBIO 3/DA PASSANO,,44.420998,8.946746,,,Via Bobbio,Genoa,Regione Liguria,16100
0275,BOBBIO 4/PONTETTO,,44.417397,8.948155,,,Via Bobbio,Genoa,Regione Liguria,16100
0276,BOBBIO 5/STADIO,,44.416332,8.949742,,,Via Bobbio,Genoa,Regione Liguria,16100
0277,CANEVARI 1/ROMAGNOSI,,44.413521,8.951599,,,Via Canevari,Genoa,Regione Liguria,16100
0278,CANEVARI 2/PIAZZA FIRPO,,44.410660,8.951988,,,Via Canevari,Genoa,Regione Liguria,16100
0279,CANEVARI 4/SANT'AGATA METRO',,44.407364,8.949309,,,Via Canevari,Genoa,Regione Liguria,16100
0280,DUCA D'AOSTA/BRIGNOLE FS,,44.404980,8.947266,,,Viale Duca D'Aosta Emanuele Filiberto,Genoa,Regione Liguria,16100
0281,GNEO 1/MONTE TIMONE,,44.446148,8.853915,,,Via Gneo,Genoa,Regione Liguria,16100
0283,BRIGATE PARTIGIANE 1/GESTRO,,44.397762,8.944540,,,Viale Brigate Partigiane,Genoa,Regione Liguria,16100
0284,BRIGATE PARTIGIANE 2/RUSPOLI,,44.399567,8.945323,,,Viale Brigate Partigiane,Genoa,Regione Liguria,16100
0285,GNEO 2/,,44.444111,8.854539,,,Via Gneo,Genoa,Regione Liguria,16100
0286,BRIGATE PARTIGIANE 1/DIAZ,,44.399872,8.944887,,,Viale Brigate Partigiane,Genoa,Regione Liguria,16100
0287,BRIGATE PARTIGIANE 2/CECCHI,,44.398418,8.944205,,,Viale Brigate Partigiane,Genoa,Regione Liguria,16100
0288,MOLASSANA/CAPOLINEA,,44.454353,8.979897,,,Largo Paolo Boccardo,Genoa,Regione Liguria,16100
0289,GNEO 2/,,44.444187,8.854445,,,Via Gneo,Genoa,Regione Liguria,16100
0290,IST NORD/CENTRO CONVEGNI,,44.410606,8.974499,,,Sconosciuto,Genoa,Regione Liguria,16100
0291,PIAZZA DANTE/,,44.405136,8.936207,,,Piazza Dante,Genoa,Regione Liguria,16100
0292,MACAGGI/CESAREA,,44.402153,8.942230,,,Via Giuseppe Macaggi,Genoa,Regione Liguria,16100
0293,CADORNA/PIAZZA DELLA VITTORIA,,44.404640,8.944925,,,Via Luigi Cadorna,Genoa,Regione Liguria,16100
0294,XX SETTEMBRE 1/MERC. ORIENTALE,,44.405487,8.941456,,,Via 20 Settembre,Genoa,Regione Liguria,16100
0295,XX SETTEMBRE 2/PORTORIA,,44.406406,8.937679,,,Via 20 Settembre,Genoa,Regione Liguria,16100
0296,RESASCO/CAPOLINEA,,44.428837,8.953274,,,Piazzale Giovanni Battista Resasco,Genoa,Regione Liguria,16100
0298,BUENOS AIRES 1/LAMBRUSCHINI,,44.403675,8.948204,,,Corso Buenos Aires,Genoa,Regione Liguria,16100
0299,BUENOS AIRES 2/CASAREGIS,,44.402599,8.952048,,,Corso Buenos Aires,Genoa,Regione Liguria,16100
0300,TOMMASEO/MONTESUELLO,,44.402020,8.953762,,,Piazza Tommaseo,Genoa,Regione Liguria,16100
0301,POZZO 1/DASSORI,,44.402950,8.955849,,,Via Francesco Pozzo,Genoa,Regione Liguria,16100
0302,POZZO 2/FASCE,,44.402767,8.956036,,,Via Francesco Pozzo,Genoa,Regione Liguria,16100
0303,POZZO 3/TRENTO,,44.400616,8.956691,,,Via Francesco Pozzo,Genoa,Regione Liguria,16100
0304,ALBARO/CAUSA,,44.399864,8.959701,,,Via Albaro,Genoa,Regione Liguria,16100
0305,LEONARDO DA VINCI/,,44.397602,8.965063,,,Piazza Leonardo da Vinci,Genoa,Regione Liguria,16100
0306,BOSELLI/GUERRAZZI,,44.396915,8.967501,,,Via Paolo Boselli,Genoa,Regione Liguria,16100
0307,PISA/GIORDANO BRUNO,,44.395981,8.973269,,,Via Pisa,Genoa,Regione Liguria,16100
0308,CAPRERA/ORSINI,,44.395294,8.975339,,,Via Caprera,Genoa,Regione Liguria,16100
0309,GEIRATO 8/RIO LAGOLUNGO,,44.466278,8.987797,,,Via Geirato,Genoa,Regione Liguria,16100
0310,MILLE/BRIGATA SALERNO,,44.393047,8.983822,,,Via dei Mille,Genoa,Regione Liguria,16100
0311,V MAGGIO 1/OSPEDALE GASLINI,,44.391254,8.988430,,,Via Gerolamo Gaslini,Genoa,Regione Liguria,16100
0312,V MAGGIO 2/CARRARA,,44.389751,8.991486,,,Via 5 Maggio,Genoa,Regione Liguria,16100
0313,V MAGGIO 3/VILLA CARRARA,,44.389229,8.993926,,,Via 5 Maggio,Genoa,Regione Liguria,16100
0314,V MAGGIO 4/QUARTO FS,,44.387661,8.995413,,,Via 5 Maggio,Genoa,Regione Liguria,16100
0315,QUARTO 1/PRIARUGGIA,,44.386768,8.998128,,,Via Quarto,Genoa,Regione Liguria,16100
0316,QUARTO 2/CAPO SAN ROCCO,,44.386925,8.999772,,,Via Quarto,Genoa,Regione Liguria,16100
0317,QUARTO 3/QUARTARA,,44.386555,9.002578,,,Via Quarto,Genoa,Regione Liguria,16100
0318,QUARTO 4/FABRIZI,,44.385906,9.007751,,,Via Quarto,Genoa,Regione Liguria,16100
0319,QUINTO/BAGNARA,,44.385590,9.012631,,,Via Quinto,Genoa,Regione Liguria,16100
0320,GIANELLI 1/BOLZANO,,44.385002,9.016411,,,Via Angelo Gianelli,Genoa,Regione Liguria,16100
0321,GIANELLI 2/QUINTO FS,,44.384243,9.019882,,,Via Angelo Gianelli,Genoa,Regione Liguria,16100
0322,MURCAROLO/ROMANA DI MURCAROLO,,44.383163,9.024618,,,Via Murcarolo,Genoa,Regione Liguria,16100
0323,OBERDAN 1/SANTAROSA,,44.382870,9.028675,,,Via Guglielmo Oberdan,Genoa,Regione Liguria,16100
0324,OBERDAN 2/PONTE DI NERVI,,44.384865,9.032849,,,Via Guglielmo Oberdan,Genoa,Regione Liguria,16100
0325,OBERDAN 4/DUCA DEGLI ABRUZZI,,44.384342,9.035545,,,Via Guglielmo Oberdan,Genoa,Regione Liguria,16100
0329,OBERDAN 4/SANTAROSA,,44.383076,9.029015,,,Via Guglielmo Oberdan,Genoa,Regione Liguria,16100
0330,GIANELLI 1/ROMANA DI MURCAROLO,,44.383419,9.023978,,,Via Angelo Gianelli,Genoa,Regione Liguria,16100
0331,GIANELLI/CAPOLINEA,,44.384392,9.019631,,,Via Angelo Gianelli,Genoa,Regione Liguria,16100
0332,GIANELLI 3/BOLZANO,,44.385033,9.016739,,,Via Angelo Gianelli,Genoa,Regione Liguria,16100
0333,QUINTO/BAGNARA,,44.385483,9.011838,,,Via Quinto,Genoa,Regione Liguria,16100
0334,QUARTO 1/FABRIZI,,44.386078,9.007276,,,Via Quarto,Genoa,Regione Liguria,16100
0335,QUARTO 2/QUARTARA,,44.386593,9.002425,,,Via Quarto,Genoa,Regione Liguria,16100
0336,QUARTO 3/CAPO SAN ROCCO,,44.387024,9.000925,,,Via Quarto,Genoa,Regione Liguria,16100
0337,V MAGGIO 1/PRIARUGGIA,,44.387646,8.997337,,,Via 5 Maggio,Genoa,Regione Liguria,16100
0338,V MAGGIO 2/QUARTO FS,,44.388340,8.994505,,,Piazzale Francesco Crispi,Genoa,Regione Liguria,16100
0339,V MAGGIO 3/VILLA CARRARA,,44.389709,8.992446,,,Via 5 Maggio,Genoa,Regione Liguria,16100
0340,V MAGGIO 4/CARRARA,,44.390064,8.991112,,,Via 5 Maggio,Genoa,Regione Liguria,16100
0341,V MAGGIO 6/OSPEDALE GASLINI,,44.391472,8.988017,,,Via 5 Maggio,Genoa,Regione Liguria,16100
0342,V MAGGIO 7/REDIPUGLIA,,44.392323,8.985615,,,Via 5 Maggio,Genoa,Regione Liguria,16100
0343,PIAZZA STURLA/CAPRERA,,44.394924,8.979808,,,Via Caprera,Genoa,Regione Liguria,16100
0344,CAPRERA/ORSINI,,44.395439,8.975319,,,Via Caprera,Genoa,Regione Liguria,16100
0345,PISA/AMALFI,,44.396233,8.972657,,,Via Pisa,Genoa,Regione Liguria,16100
0346,BOSELLI/GUERRAZZI,,44.396839,8.968594,,,Via Paolo Boselli,Genoa,Regione Liguria,16100
0347,LEONARDO DA VINCI/,,44.397915,8.964725,,,Piazza Leonardo da Vinci,Genoa,Regione Liguria,16100
0348,ALBARO/CAUSA,,44.400185,8.958944,,,Via Albaro,Genoa,Regione Liguria,16100
0349,POZZO 1/TRENTO,,44.400898,8.956008,,,Via Francesco Pozzo,Genoa,Regione Liguria,16100
0350,POZZO 2/FASCE,,44.402802,8.956341,,,Via Francesco Pozzo,Genoa,Regione Liguria,16100
0351,POZZO 3/DASSORI,,44.403122,8.955886,,,Via Francesco Pozzo,Genoa,Regione Liguria,16100
0352,TOMMASEO/MONTESUELLO,,44.402229,8.953762,,,Piazza Tommaseo,Genoa,Regione Liguria,16100
0353,BUENOS AIRES 1/DA NOVI,,44.403126,8.950571,,,Corso Buenos Aires,Genoa,Regione Liguria,16100
0354,BUENOS AIRES 2/LAMBRUSCHINI,,44.403740,8.948375,,,Corso Buenos Aires,Genoa,Regione Liguria,16100
0355,DANTE 2/CASA DI COLOMBO,,44.405701,8.935208,,,Piazza Dante,Genoa,Regione Liguria,16100
0356,IST NORD/CENTRO CONVEGNI,,44.410839,8.974246,,,Sconosciuto,Genoa,Regione Liguria,16100
0357,GEIRATO 1/RIO LAGOLUNGO,,44.466129,8.987511,,,Via Geirato,Genoa,Regione Liguria,16100
0359,GNEO 3/MONTE TIMONE,,44.446232,8.853975,,,Via Gneo,Genoa,Regione Liguria,16100
0360,BRIGNOLE FS/,,44.405956,8.947030,,,Piazza Giuseppe Verdi,Genoa,Regione Liguria,16100
0361,INVREA 2/CASAREGIS,,44.404209,8.952478,,,Via Giovanni Tomaso Invrea,Genoa,Regione Liguria,16100
0362,ODESSA/ALIMONDA,,44.403755,8.955333,,,Via Odessa,Genoa,Regione Liguria,16100
0363,GASTALDI 1/PONTE DI TERRALBA,,44.404659,8.959888,,,Corso Aldo Gastaldi,Genoa,Regione Liguria,16100
0364,GASTALDI 2/CASA DELLO STUDENTE,,44.404583,8.964451,,,Corso Aldo Gastaldi,Genoa,Regione Liguria,16100
0365,EUROPA 1/OSPEDALE SAN MARTINO,,44.406372,8.971339,,,Corso Europa,Genoa,Regione Liguria,16100
0366,EUROPA 2/PRONTO SOCCORSO,,44.407631,8.975585,,,Corso Europa,Genoa,Regione Liguria,16100
0367,EUROPA 3/PIAZZETTA,,44.405071,8.981376,,,Corso Europa,Genoa,Regione Liguria,16100
0368,EUROPA 4/ISONZO,,44.402760,8.984275,,,Corso Europa,Genoa,Regione Liguria,16100
0369,EUROPA 5/SWINBURNE,,44.399384,8.989305,,,Corso Europa,Genoa,Regione Liguria,16100
0370,EUROPA 6/SHELLEY,,44.398716,8.991502,,,Corso Europa,Genoa,Regione Liguria,16100
0371,EUROPA 7/CARRARA,,44.396397,8.993305,,,Via Giovanni Maggio,Genoa,Regione Liguria,16100
0372,EUROPA 8/PIAZZA NIEVO,,44.394390,8.996299,,,Corso Europa,Genoa,Regione Liguria,16100
0373,EUROPA 9/SCHIAFFINO,,44.394272,9.001188,,,Corso Europa,Genoa,Regione Liguria,16100
0374,EUROPA 10/QUARTO CASTAGNA,,44.394707,9.003425,,,Corso Europa,Genoa,Regione Liguria,16100
0375,EUROPA 11/AUTOSTRADA,,44.393368,9.006823,,,Corso Europa,Genoa,Regione Liguria,16100
0376,EUROPA 12/TOGLIATTI,,44.391994,9.009416,,,Corso Europa,Genoa,Regione Liguria,16100
0377,EUROPA 13/MAJORANA,,44.389942,9.012329,,,Corso Europa,Genoa,Regione Liguria,16100
0378,EUROPA 14/SAN PIETRO,,44.387558,9.016524,,,Corso Europa,Genoa,Regione Liguria,16100
0379,EUROPA 15/QUINTO,,44.386105,9.019528,,,Corso Europa,Genoa,Regione Liguria,16100
0380,EUROPA 16/CABRUNA,,44.385185,9.022980,,,Corso Europa,Genoa,Regione Liguria,16100
0381,EUROPA 17/OSPEDALE DI NERVI,,44.384041,9.028093,,,Corso Europa,Genoa,Regione Liguria,16100
0382,PITTALUGA/NERVI FS,,44.383766,9.040490,,,Piazza Antonio Pittaluga,Genoa,Regione Liguria,16100
0383,CASOTTI/VILLA GROPALLO,,44.383064,9.043978,,,Via Aldo Casotti,Genoa,Regione Liguria,16100
0384,CAPOLUNGO 1/VILLA SERRA,,44.382263,9.045805,,,Via Capolungo,Genoa,Regione Liguria,16100
0385,CAPOLUNGO 3/ANCONA,,44.381145,9.050247,,,Via Capolungo,Genoa,Regione Liguria,16100
0386,AURELIA 1/STAZIONE SANT'ILARIO,,44.381001,9.053036,,,Via Aurelia,Genoa,Regione Liguria,16100
0387,AURELIA 2/SOMMA,,44.380802,9.054993,,,Via Aurelia,Genoa,Regione Liguria,16100
0388,SOMMA 1/CAPOLUNGO,,44.382523,9.052378,,,Via Donato Somma,Genoa,Regione Liguria,16100
0389,SOMMA 3/SANT'ILARIO,,44.383713,9.046923,,,Via Donato Somma,Genoa,Regione Liguria,16100
0390,SOMMA 4/RAVINA,,44.385101,9.043110,,,Via Donato Somma,Genoa,Regione Liguria,16100
0391,SOMMA 5/VASSALLI,,44.385231,9.039595,,,Via Donato Somma,Genoa,Regione Liguria,16100
0392,SOMMA 6/DUCA DEGLI ABRUZZI,,44.385513,9.036026,,,Via Donato Somma,Genoa,Regione Liguria,16100
0393,OBERDAN 3/PONTE DI NERVI,,44.384548,9.032179,,,Via Guglielmo Oberdan,Genoa,Regione Liguria,16100
0394,EUROPA 1/OSPEDALE DI NERVI,,44.384380,9.027522,,,Corso Europa,Genoa,Regione Liguria,16100
0395,EUROPA 2/CABRUNA,,44.385376,9.022964,,,Corso Europa,Genoa,Regione Liguria,16100
0396,EUROPA 3/QUINTO,,44.386608,9.018655,,,Corso Europa,Genoa,Regione Liguria,16100
0397,EUROPA 4/SAN PIETRO,,44.387669,9.016805,,,Corso Europa,Genoa,Regione Liguria,16100
0398,EUROPA 5/MAJORANA,,44.390495,9.011899,,,Corso Europa,Genoa,Regione Liguria,16100
0399,EUROPA 6/TOGLIATTI,,44.392143,9.009666,,,Corso Europa,Genoa,Regione Liguria,16100
0400,EUROPA 7/AUTOSTRADA,,44.394150,9.005889,,,Corso Europa,Genoa,Regione Liguria,16100
0401,EUROPA 8/QUARTO CASTAGNA,,44.394993,9.002574,,,Corso Europa,Genoa,Regione Liguria,16100
0402,EUROPA 9/SCHIAFFINO,,44.394257,8.999976,,,Corso Europa,Genoa,Regione Liguria,16100
0403,EUROPA 10/PIAZZA NIEVO,,44.394615,8.996697,,,Corso Europa,Genoa,Regione Liguria,16100
0404,EUROPA 11/CARRARA,,44.395607,8.993842,,,Via Stefano Türr,Genoa,Regione Liguria,16100
0405,EUROPA 12/SHELLEY,,44.398750,8.991272,,,Corso Europa,Genoa,Regione Liguria,16100
0406,EUROPA 13/SWINBURNE,,44.399574,8.989015,,,Corso Europa,Genoa,Regione Liguria,16100
0407,EUROPA 14/TIMAVO,,44.402973,8.983974,,,Corso Europa,Genoa,Regione Liguria,16100
0408,EUROPA 15/PIAZZETTA,,44.405369,8.981163,,,Corso Europa,Genoa,Regione Liguria,16100
0409,EUROPA 16/PRONTO SOCCORSO,,44.407505,8.975025,,,Corso Europa,Genoa,Regione Liguria,16100
0410,EUROPA 17/OSPEDALE SAN MARTINO,,44.405910,8.970081,,,Corso Europa,Genoa,Regione Liguria,16100
0411,GASTALDI 1/BENEDETTO XV,,44.404922,8.966658,,,Corso Aldo Gastaldi,Genoa,Regione Liguria,16100
0412,GASTALDI 2/CASA DELLO STUDENTE,,44.404713,8.964119,,,Corso Aldo Gastaldi,Genoa,Regione Liguria,16100
0413,GASTALDI 3/PONTE DI TERRALBA,,44.404793,8.958339,,,Corso Aldo Gastaldi,Genoa,Regione Liguria,16100
0414,TOLEMAIDE 1/TORINO,,44.404827,8.953150,,,Via Tolemaide,Genoa,Regione Liguria,16100
0415,TOLEMAIDE 2/ARCHIMEDE,,44.405285,8.950356,,,Via Tolemaide,Genoa,Regione Liguria,16100
0416,BRIGNOLE FS/,,44.406784,8.946188,,,Piazza Giuseppe Verdi,Genoa,Regione Liguria,16100
0417,FIUME/XX SETTEMBRE,,44.404972,8.944442,,,Via Fiume,Genoa,Regione Liguria,16100
0418,TOGLIATTI 4/CAMPO SPORTIVO,,44.396797,9.014654,,,Via Palmiro Togliatti,Genoa,Regione Liguria,16100
0419,COMMERCIO/CAPOLINEA,,44.386181,9.031435,,,Via Bartolomeo Pagano,Genoa,Regione Liguria,16100
0420,BIANCHI 2/PERINI,,44.421875,8.883499,,,Via Renata Bianchi,Genoa,Regione Liguria,16100
0422,THAON DI REVEL/BRIGNOLE FS,,44.405891,8.945290,,,Viale Paolo Thaon de Revel,Genoa,Regione Liguria,16100
0423,MOSSO/PRONTO SOCCORSO,,44.408249,8.975184,,,Via Francesco Saverio Mosso,Genoa,Regione Liguria,16100
0424,TORTI 1/BARRILI,,44.405941,8.966055,,,Via Giovanni Torti,Genoa,Regione Liguria,16100
0425,TORTI 2/MANUZIO,,44.407181,8.963319,,,Via Giovanni Torti,Genoa,Regione Liguria,16100
0426,TORTI 3/TERRALBA,,44.407352,8.960487,,,Via Giovanni Torti,Genoa,Regione Liguria,16100
0427,MARTINEZ/GIACOMETTI,,44.406940,8.956548,,,Piazza Giovanni Martinez,Genoa,Regione Liguria,16100
0428,GIUSTI/SARDEGNA,,44.407555,8.952476,,,Piazza Giusti,Genoa,Regione Liguria,16100
0429,BUFFA 2/VERITA',,44.428902,8.758564,,,Via Gaspare Buffa,Genoa,Regione Liguria,16100
0430,ROMA/CORVETTO,,44.409660,8.937420,,,Via Roma,Genoa,Regione Liguria,16100
0431,PORTELLO/CAFFARO,,44.411640,8.934018,,,Piazza del Portello,Genoa,Regione Liguria,16100
0432,ZECCA/CARMINE,,44.413303,8.930087,,,Largo della Zecca,Genoa,Regione Liguria,16100
0433,PRINCIPE FS/,,44.416389,8.922138,,,Piazza Acquaverde,Genoa,Regione Liguria,16100
0434,DEGOLA/FIUMARA,,44.414341,8.883945,,,Via Eustachio Degola,Genoa,Regione Liguria,16100
0435,NUNZIATA/,,44.413696,8.928207,,,Piazza della Nunziata,Genoa,Regione Liguria,16100
0436,PORTELLO/INTERIANO,,44.411446,8.934340,,,Piazza del Portello,Genoa,Regione Liguria,16100
0437,GIACOMO E FILIPPO/CORVETTO,,44.409939,8.939283,,,Via dei Santi Giacomo e Filippo,Genoa,Regione Liguria,16100
0438,DE AMICIS/PIAZZA BRIGNOLE,,44.408478,8.944423,,,Piazza Brignole,Genoa,Regione Liguria,16100
0439,BRIGNOLE FS/,,44.406143,8.946972,,,Piazza Giuseppe Verdi,Genoa,Regione Liguria,16100
0441,GIACOMETTI/PIAZZA GIUSTI,,44.407051,8.954124,,,Via Paolo Giacometti,Genoa,Regione Liguria,16100
0442,MARTINEZ/CASONI,,44.406487,8.956861,,,Piazza Giovanni Martinez,Genoa,Regione Liguria,16100
0443,TERRALBA/TORTI,,44.407082,8.961026,,,Piazza Terralba,Genoa,Regione Liguria,16100
0444,TORTI/DONGHI,,44.406837,8.964657,,,Via Giovanni Torti,Genoa,Regione Liguria,16100
0445,BARRILI/TORTI,,44.405704,8.966062,,,Sconosciuto,Genoa,Regione Liguria,16100
0446,SAN MARTINO 1/UNIVERSITA',,44.404789,8.967895,,,Via San Martino,Genoa,Regione Liguria,16100
0447,SAN MARTINO 2/PAPIGLIANO,,44.405697,8.970962,,,Via San Martino,Genoa,Regione Liguria,16100
0448,SAN MARTINO 3/RAI,,44.406208,8.973002,,,Via San Martino,Genoa,Regione Liguria,16100
0449,LAGUSTENA 1/CHIESA SAN MARTINO,,44.405567,8.976123,,,Via Silvio Lagustena,Genoa,Regione Liguria,16100
0450,OSPEDALE SAN MARTINO/CAPOLINEA,,44.406853,8.969361,,,Viale Benedetto XV,Genoa,Regione Liguria,16100
0451,PRINCIPE FS/CAPOLINEA,,44.416683,8.922200,,,Piazza Acquaverde,Genoa,Regione Liguria,16100
0452,FANTI D'ITALIA/PRINCIPE FS,,44.416344,8.918820,,,Via Fanti d'Italia,Genoa,Regione Liguria,16100
0453,PERINI/CAMPI,,44.423012,8.883479,,,Via Luigi Perini,Genoa,Regione Liguria,16100
0455,FONTANE MAROSE/,,44.410248,8.934989,,,Piazza delle Fontane Marose,Genoa,Regione Liguria,16100
0458,ROBINO 1/AMEGLIO,,44.419518,8.957111,,,Via Aurelio Robino,Genoa,Regione Liguria,16100
0459,XX SETTEMBRE 2/MONUMENTALE,,44.406006,8.938934,,,Via 20 Settembre,Genoa,Regione Liguria,16100
0460,XX SETTEMBRE 3/MERC. ORIENTALE,,44.405365,8.941594,,,Via 20 Settembre,Genoa,Regione Liguria,16100
0461,CADORNA/PIAZZA DELLA VITTORIA,,44.404579,8.944677,,,Via Luigi Cadorna,Genoa,Regione Liguria,16100
0462,TORINO 1/SAVONAROLA,,44.402115,8.950682,,,Corso Torino,Genoa,Regione Liguria,16100
0463,TORINO 2/BARABINO,,44.400196,8.949772,,,Corso Torino,Genoa,Regione Liguria,16100
0464,TORINO 3/RUSPOLI,,44.398331,8.948900,,,Corso Torino,Genoa,Regione Liguria,16100
0465,RIMASSA/MORIN,,44.396885,8.948444,,,Via Alessandro Rimassa,Genoa,Regione Liguria,16100
0466,TORINO 1/RUSPOLI,,44.398445,8.949080,,,Corso Torino,Genoa,Regione Liguria,16100
0467,TORINO 2/BARABINO,,44.400181,8.949903,,,Corso Torino,Genoa,Regione Liguria,16100
0469,MONTANO/SAMPIERDARENA FS,,44.412750,8.888113,,,Piazza Nicolò Montano,Genoa,Regione Liguria,16100
0471,TRAVI 2/MENOTTI,,44.423912,8.849148,,,Via Antonio Travi,Genoa,Regione Liguria,16100
0472,BORZOLI 1/SAN NICOLA,,44.423645,8.854797,,,Via Borzoli,Genoa,Regione Liguria,16100
0473,SPARTA/,,44.425125,8.857036,,,Via Sparta,Genoa,Regione Liguria,16100
0474,SANT'ELIA 1/SANTA CRISTINA,,44.425385,8.858531,,,Via Antonio Sant'Elia,Genoa,Regione Liguria,16100
0475,SANT'ELIA 2/,,44.425972,8.858663,,,Via Antonio Sant'Elia,Genoa,Regione Liguria,16100
0476,SANT'ELIA 3/,,44.425198,8.860040,,,Via Antonio Sant'Elia,Genoa,Regione Liguria,16100
0477,SANT'ELIA 4/,,44.425663,8.861947,,,Via Antonio Sant'Elia,Genoa,Regione Liguria,16100
0478,SANT'ELIA 2/,,44.425320,8.859914,,,Via Antonio Sant'Elia,Genoa,Regione Liguria,16100
0479,SANT'ELIA 3/,,44.425983,8.858505,,,Via Antonio Sant'Elia,Genoa,Regione Liguria,16100
0480,SANT'ELIA 4/SANTA CRISTINA,,44.425354,8.858048,,,Via Antonio Sant'Elia,Genoa,Regione Liguria,16100
0481,SPARTA/,,44.424976,8.856797,,,Via Sparta,Genoa,Regione Liguria,16100
0482,BORZOLI 12/SAN NICOLA,,44.423534,8.854503,,,Via Borzoli,Genoa,Regione Liguria,16100
0483,TRAVI 1/SESTRI FS AEROPORTO,,44.422928,8.848654,,,Via Antonio Travi,Genoa,Regione Liguria,16100
0484,MARCONI 1/FIERA,,44.396019,8.944441,,,Corso Guglielmo Marconi,Genoa,Regione Liguria,16100
0485,MARCONI 2/RIMASSA,,44.395145,8.948105,,,Corso Guglielmo Marconi,Genoa,Regione Liguria,16100
0486,ITALIA 1/PUNTA VAGNO,,44.393105,8.951195,,,Corso Italia,Genoa,Regione Liguria,16100
0487,ITALIA 2/PIAVE,,44.392036,8.954434,,,Corso Italia,Genoa,Regione Liguria,16100
0488,ITALIA 3/ZARA,,44.391838,8.958113,,,Corso Italia,Genoa,Regione Liguria,16100
0489,ITALIA 4/SAURO,,44.392780,8.962693,,,Corso Italia,Genoa,Regione Liguria,16100
0490,ITALIA 5/LIDO,,44.390915,8.968473,,,Corso Italia,Genoa,Regione Liguria,16100
0491,CAVALLOTTI 1/DE GASPARI,,44.391754,8.974620,,,Via Felice Cavallotti,Genoa,Regione Liguria,16100
0492,CAVALLOTTI 2/CAPRERA,,44.394665,8.975681,,,Via Felice Cavallotti,Genoa,Regione Liguria,16100
0494,CAVALLOTTI 1/MONLEONE,,44.394268,8.975348,,,Via Felice Cavallotti,Genoa,Regione Liguria,16100
0495,CAVALLOTTI 2/BOCCADASSE,,44.390720,8.974048,,,Via Felice Cavallotti,Genoa,Regione Liguria,16100
0496,ITALIA 1/LIDO,,44.391132,8.968610,,,Corso Italia,Genoa,Regione Liguria,16100
0497,ITALIA 2/SAURO,,44.393013,8.962355,,,Corso Italia,Genoa,Regione Liguria,16100
0498,ITALIA 3/ZARA,,44.391953,8.957679,,,Corso Italia,Genoa,Regione Liguria,16100
0499,ITALIA 5/PIAVE,,44.392635,8.953136,,,Corso Italia,Genoa,Regione Liguria,16100
0500,ITALIA 6/PUNTA VAGNO,,44.393669,8.950922,,,Corso Italia,Genoa,Regione Liguria,16100
0501,MARCONI 1/RIMASSA,,44.395378,8.948206,,,Corso Guglielmo Marconi,Genoa,Regione Liguria,16100
0502,MARCONI 2/FIERA,,44.396152,8.945263,,,Corso Guglielmo Marconi,Genoa,Regione Liguria,16100
0504,FIESCHI/DANTE,,44.405384,8.936727,,,Via Fieschi,Genoa,Regione Liguria,16100
0506,CARIGNANO/ALGHERO,,44.402096,8.934180,,,Piazza di Carignano,Genoa,Regione Liguria,16100
0507,INVREA 1/ANTIOCHIA,,44.404797,8.949789,,,Via Giovanni Tomaso Invrea,Genoa,Regione Liguria,16100
0508,DINEGRO/MERCATO,,44.413143,8.910265,,,Piazza Dinegro,Genoa,Regione Liguria,16100
0509,VENEZIA 1/SOPRANIS,,44.416157,8.910198,,,Via Venezia,Genoa,Regione Liguria,16100
0510,VENEZIA 2/ALIZERI,,44.417873,8.910115,,,Via Venezia,Genoa,Regione Liguria,16100
0511,BOLOGNA 1/SAN MARCELLINO,,44.418381,8.909151,,,Via Bologna,Genoa,Regione Liguria,16100
0512,BOLOGNA 2/FAENZA,,44.419044,8.907685,,,Via Bologna,Genoa,Regione Liguria,16100
0513,BOLOGNA 3/PESTARINO,,44.419960,8.909019,,,Via Bologna,Genoa,Regione Liguria,16100
0514,BOLOGNA 5/LUGO,,44.419205,8.911777,,,Via Bologna,Genoa,Regione Liguria,16100
0515,S.F. DA PAOLA/,,44.419327,8.914950,,,Largo San Francesco da Paola,Genoa,Regione Liguria,16100
0516,BOLOGNA 1/LUGO,,44.419064,8.911373,,,Via Bologna,Genoa,Regione Liguria,16100
0517,BOLOGNA 3/PESTARINO,,44.420097,8.909247,,,Via Bologna,Genoa,Regione Liguria,16100
0518,BOLOGNA 4/FAENZA,,44.419167,8.907535,,,Via Bologna,Genoa,Regione Liguria,16100
0519,BOLOGNA 5/SAN MARCELLINO,,44.418465,8.909170,,,Via Bologna,Genoa,Regione Liguria,16100
0520,VENEZIA 1/ALIZERI,,44.417603,8.910272,,,Via Venezia,Genoa,Regione Liguria,16100
0521,VENEZIA 2/SOPRANIS,,44.415695,8.909990,,,Via Venezia,Genoa,Regione Liguria,16100
0522,DINEGRO/MERCATO,,44.413013,8.909683,,,Piazza Dinegro,Genoa,Regione Liguria,16100
0524,MILANO/TRAGHETTI,,44.410809,8.908304,,,Via Milano,Genoa,Regione Liguria,16100
0525,ASSAROTTI 2/PROVVEDITORATO,,44.412193,8.943281,,,Via Assarotti,Genoa,Regione Liguria,16100
0526,MANIN/ARMELLINI,,44.414181,8.946736,,,Piazza Manin,Genoa,Regione Liguria,16100
0527,ARMELLINI/ISTITUTO CHIOSSONE,,44.413437,8.944136,,,Corso Carlo Armellini,Genoa,Regione Liguria,16100
0528,SOLFERINO/OSPEDALE EVANGELICO,,44.413971,8.941111,,,Corso Solferino,Genoa,Regione Liguria,16100
0529,MAGENTA 1/SANTA MARIA SANITA',,44.413498,8.938305,,,Corso Magenta,Genoa,Regione Liguria,16100
0530,MAGENTA 2/SANT'ANNA,,44.414711,8.937021,,,Corso Magenta,Genoa,Regione Liguria,16100
0531,PAGANINI/PONTE CAFFARO,,44.415855,8.935343,,,Corso Paganini,Genoa,Regione Liguria,16100
0532,VILLA/SPIANATA CASTELLETTO,,44.414528,8.933499,,,Piazza Goffredo Villa,Genoa,Regione Liguria,16100
0533,FIRENZE 2/GIARDINI ROSSI,,44.418102,8.934236,,,Corso Firenze,Genoa,Regione Liguria,16100
0534,FIRENZE 3/SALVAGO,,44.418297,8.932903,,,Corso Firenze,Genoa,Regione Liguria,16100
0535,FIRENZE 4/SAN NICOLA,,44.419910,8.930878,,,Corso Firenze,Genoa,Regione Liguria,16100
0536,FIRENZE 5/PELLIZZARI,,44.420181,8.928679,,,Corso Firenze,Genoa,Regione Liguria,16100
0537,FIRENZE 6/SAN BARNABA,,44.418743,8.927850,,,Corso Firenze,Genoa,Regione Liguria,16100
0538,DOGALI 2/BASSI,,44.418827,8.924796,,,Corso Dogali,Genoa,Regione Liguria,16100
0539,BASSI 1/SPINOLA,,44.420288,8.925674,,,Corso Ugo Bassi,Genoa,Regione Liguria,16100
0540,BASSI 2/OSSERVATORIO,,44.419544,8.922672,,,Corso Ugo Bassi,Genoa,Regione Liguria,16100
0541,SANT'UGO/FERREIRA,,44.419323,8.923871,,,Via Sant'Ugo,Genoa,Regione Liguria,16100
0542,PROVVIDENZA/AVEZZANA,,44.417831,8.921623,,,Salita della Provvidenza,Genoa,Regione Liguria,16100
0543,PRINCIPE FS/CAPOLINEA,,44.416653,8.922301,,,Piazza Acquaverde,Genoa,Regione Liguria,16100
0544,ASSAROTTI 1/CALATAFIMI,,44.410870,8.940281,,,Via Assarotti,Genoa,Regione Liguria,16100
0545,SANT'UGO/ALMERIA,,44.419384,8.924216,,,Via Sant'Ugo,Genoa,Regione Liguria,16100
0546,ALMERIA/OSSERVATORIO,,44.419373,8.922905,,,Via Almeria,Genoa,Regione Liguria,16100
0547,BASSI/GIARDINI MONTALE,,44.420174,8.925448,,,Corso Ugo Bassi,Genoa,Regione Liguria,16100
0548,FIRENZE 1/DOGALI,,44.418591,8.925359,,,Corso Firenze,Genoa,Regione Liguria,16100
0549,FIRENZE 2/SAN BARNABA,,44.418808,8.928041,,,Corso Firenze,Genoa,Regione Liguria,16100
0550,FIRENZE 3/PELLIZZARI,,44.420353,8.929170,,,Corso Firenze,Genoa,Regione Liguria,16100
0551,FIRENZE 4/SAN NICOLA,,44.419666,8.930932,,,Corso Firenze,Genoa,Regione Liguria,16100
0552,FIRENZE 5/SALVAGO,,44.418392,8.933315,,,Corso Firenze,Genoa,Regione Liguria,16100
0553,FIRENZE 6/GIARDINI ROSSI,,44.417873,8.933895,,,Corso Firenze,Genoa,Regione Liguria,16100
0554,VILLA/SPIANATA CASTELLETTO,,44.414429,8.933634,,,Piazza Goffredo Villa,Genoa,Regione Liguria,16100
0555,MAGENTA 1/SANT'ANNA,,44.414726,8.937716,,,Corso Magenta,Genoa,Regione Liguria,16100
0556,MAGENTA 2/SANTA MARIA SANITA',,44.413219,8.938865,,,Corso Magenta,Genoa,Regione Liguria,16100
0557,SOLFERINO/OSPEDALE EVANGELICO,,44.413799,8.941260,,,Corso Solferino,Genoa,Regione Liguria,16100
0558,ARMELLINI 2/MANIN,,44.414001,8.946237,,,Corso Carlo Armellini,Genoa,Regione Liguria,16100
0559,ASSAROTTI/PESCHIERA,,44.411751,8.942055,,,Via Assarotti,Genoa,Regione Liguria,16100
0561,MONTALDO 1/DA PASSANO,,44.420853,8.945632,,,Via Leonardo Montaldo,Genoa,Regione Liguria,16100
0562,MONTALDO 2/SALITA MELONI,,44.419075,8.946051,,,Via Leonardo Montaldo,Genoa,Regione Liguria,16100
0563,MONTALDO 3/CHIAPPAZZO,,44.417133,8.947189,,,Via Leonardo Montaldo,Genoa,Regione Liguria,16100
0564,MONTALDO 4/SCALINATA MONTALDO,,44.415600,8.948077,,,Via Leonardo Montaldo,Genoa,Regione Liguria,16100
0565,MANIN/,,44.413826,8.946795,,,Piazza Manin,Genoa,Regione Liguria,16100
0566,CORVETTO/PIAGGIO,,44.410336,8.938220,,,Piazza Corvetto,Genoa,Regione Liguria,16100
0567,MOLASSANA 1/OLMO,,44.452923,8.977269,,,Via Molassana,Genoa,Regione Liguria,16100
0568,PRINCIPE FS/,,44.416473,8.922493,,,Piazza Acquaverde,Genoa,Regione Liguria,16100
0569,CANEVARI 3/MONTEGRAPPA,,44.408627,8.950347,,,Via Canevari,Genoa,Regione Liguria,16100
0570,MANIN/,,44.413872,8.947151,,,Piazza Manin,Genoa,Regione Liguria,16100
0571,MONTALDO 1/SCALINATA MONTALDO,,44.415821,8.948156,,,Via Leonardo Montaldo,Genoa,Regione Liguria,16100
0572,MONTALDO 2/CHIAPPAZZO,,44.417526,8.947046,,,Via Leonardo Montaldo,Genoa,Regione Liguria,16100
0573,MONTALDO 3/SALITA MELONI,,44.419193,8.946155,,,Via Leonardo Montaldo,Genoa,Regione Liguria,16100
0574,MONTALDO 4/DA PASSANO,,44.421074,8.945735,,,Via Leonardo Montaldo,Genoa,Regione Liguria,16100
0576,VANNUCCI/MUSEO VILLA CROCE,,44.397743,8.939305,,,Corso Aurelio Saffi,Genoa,Regione Liguria,16100
0577,MURA CAPPUCCINE/VANNUCCI,,44.397919,8.942709,,,Mura delle Cappuccine,Genoa,Regione Liguria,16100
0578,VOLTA 1/GALLIERA CUP,,44.399166,8.942429,,,Via Alessandro Volta,Genoa,Regione Liguria,16100
0579,VOLTA 2/OSPEDALE GALLIERA,,44.401016,8.941443,,,Via Alessandro Volta,Genoa,Regione Liguria,16100
0580,MURA DI SANTA CHIARA/ALESSI,,44.402618,8.939188,,,Mura di Santa Chiara,Genoa,Regione Liguria,16100
0581,CORSICA/BIXIO,,44.401119,8.937227,,,Via Corsica,Genoa,Regione Liguria,16100
0582,INNOCENZO IV/CARIGNANO,,44.402496,8.935050,,,Via Innocenzo IV,Genoa,Regione Liguria,16100
0583,ARSENALE/PRINCIPE FS,,44.416615,8.923287,,,Via all'Arsenale di Terra,Genoa,Regione Liguria,16100
0584,SPINOLA/BASSI,,44.421089,8.925753,,,Via Ambrogio Spinola,Genoa,Regione Liguria,16100
0585,NAPOLI 1/SPINOLA,,44.422222,8.925999,,,Via Napoli,Genoa,Regione Liguria,16100
0586,NAPOLI 2/SAPORITI,,44.420700,8.923437,,,Via Napoli,Genoa,Regione Liguria,16100
0587,NAPOLI 3/BOINE,,44.421509,8.921539,,,Via Napoli,Genoa,Regione Liguria,16100
0588,NAPOLI 4/GAETA,,44.422504,8.920211,,,Via Napoli,Genoa,Regione Liguria,16100
0589,NAPOLI 5/VESUVIO,,44.424583,8.921498,,,Via Napoli,Genoa,Regione Liguria,16100
0590,NAPOLI 6/SCUOLA MAZZA,,44.424843,8.919303,,,Via Napoli,Genoa,Regione Liguria,16100
0591,PONTE DON ACCIAI/LAGACCIO,,44.425930,8.917318,,,Ponte Don Antonio Acciai,Genoa,Regione Liguria,16100
0592,BARI 1/TARANTO,,44.424881,8.915174,,,Via Bari,Genoa,Regione Liguria,16100
0593,BARI 2/BRINDISI,,44.422504,8.916475,,,Via Bari,Genoa,Regione Liguria,16100
0594,BARI 4/ASCENSORE CREMAGLIERA,,44.420231,8.916130,,,Via Bari,Genoa,Regione Liguria,16100
0595,BARI 1/ASCENSORE CREMAGLIERA,,44.420475,8.916554,,,Via Bari,Genoa,Regione Liguria,16100
0596,GRANAROLO/,,44.424786,8.910875,,,Via Bartolomeo Bianco,Genoa,Regione Liguria,16100
0597,BARI 3/TARANTO,,44.424927,8.915279,,,Via Bari,Genoa,Regione Liguria,16100
0598,PONTE DON ACCIAI/LAGACCIO,,44.425755,8.917686,,,Ponte Don Antonio Acciai,Genoa,Regione Liguria,16100
0599,NAPOLI 1/SCUOLA MAZZA,,44.424740,8.919227,,,Via Napoli,Genoa,Regione Liguria,16100
0600,NAPOLI 2/VESUVIO,,44.424450,8.921221,,,Via Napoli,Genoa,Regione Liguria,16100
0601,NAPOLI 3/GAETA,,44.422859,8.919907,,,Via Napoli,Genoa,Regione Liguria,16100
0602,NAPOLI 4/BOINE,,44.421402,8.921046,,,Via Napoli,Genoa,Regione Liguria,16100
0603,NAPOLI 5/SAPORITI,,44.420654,8.923586,,,Via Napoli,Genoa,Regione Liguria,16100
0604,NAPOLI 6/SPINOLA,,44.421856,8.925574,,,Via Napoli,Genoa,Regione Liguria,16100
0605,CORSICA/MENTANA,,44.401455,8.937680,,,Via Corsica,Genoa,Regione Liguria,16100
0606,MURA DI SANTA CHIARA/ALESSI,,44.402397,8.939355,,,Mura di Santa Chiara,Genoa,Regione Liguria,16100
0607,VOLTA 1/OSPEDALE GALLIERA,,44.400723,8.941485,,,Via Alessandro Volta,Genoa,Regione Liguria,16100
0608,VOLTA 2/GALLIERA CUP,,44.399143,8.942336,,,Via Alessandro Volta,Genoa,Regione Liguria,16100
0609,MURA CAPPUCCINE/VANNUCCI,,44.397827,8.942322,,,Mura delle Cappuccine,Genoa,Regione Liguria,16100
0610,VESUVIO 1/CHIESA,,44.426014,8.922843,,,Via Vesuvio,Genoa,Regione Liguria,16100
0611,VESUVIO 2/CAPRI,,44.425484,8.920460,,,Via Vesuvio,Genoa,Regione Liguria,16100
0612,VESUVIO/CAPOLINEA INFERIORE,,44.425564,8.919239,,,Via Vesuvio,Genoa,Regione Liguria,16100
0613,VESUVIO 3/CAPRI,,44.425423,8.920434,,,Via Vesuvio,Genoa,Regione Liguria,16100
0614,VESUVIO 4/CHIESA,,44.425682,8.922606,,,Via Vesuvio,Genoa,Regione Liguria,16100
0615,BRIGNOLE FS/CAPOLINEA,,44.406342,8.946920,,,Piazza Giuseppe Verdi,Genoa,Regione Liguria,16100
0617,NIZZA 1/SAN PIETRO,,44.394558,8.950595,,,Via Nizza,Genoa,Regione Liguria,16100
0618,NIZZA 2/SCALINATA GUERRIERI,,44.398144,8.952333,,,Via Nizza,Genoa,Regione Liguria,16100
0620,NIZZA 1/SCALINATA GUERRIERI,,44.397976,8.951900,,,Via Nizza,Genoa,Regione Liguria,16100
0621,NIZZA 2/SAN PIETRO,,44.394394,8.950876,,,Via Nizza,Genoa,Regione Liguria,16100
0623,BATTISTI/SCUOLE,,44.395283,8.952737,,,Via Cesare Battisti,Genoa,Regione Liguria,16100
0624,MERANI/CAPOLINEA,,44.397213,8.953147,,,Piazza Merani,Genoa,Regione Liguria,16100
0625,TRENTO/CADORE,,44.396610,8.951513,,,Via Trento,Genoa,Regione Liguria,16100
0626,TORINO 4/TOLEMAIDE,,44.404594,8.951954,,,Corso Torino,Genoa,Regione Liguria,16100
0627,SARDEGNA 1/PIAZZA GIUSTI,,44.407738,8.953396,,,Corso Sardegna,Genoa,Regione Liguria,16100
0628,SARDEGNA 2/CHIESA SANTA FEDE,,44.411518,8.955336,,,Corso Sardegna,Genoa,Regione Liguria,16100
0629,SARDEGNA 3/BONIFACIO,,44.413460,8.956271,,,Corso Sardegna,Genoa,Regione Liguria,16100
0630,DE STEFANIS 1/MONTICELLI,,44.415630,8.955760,,,Corso Alessandro De Stefanis,Genoa,Regione Liguria,16100
0631,DE STEFANIS 2/BERTUCCIONI,,44.416813,8.954243,,,Corso Alessandro De Stefanis,Genoa,Regione Liguria,16100
0633,RICCA/SALITA SPAGNOLETTA,,44.418560,8.954102,,,Via Raffaele Ricca,Genoa,Regione Liguria,16100
0634,PLATANI/SCUOLA,,44.420109,8.952446,,,Piazzale Paul Valery,Genoa,Regione Liguria,16100
0635,RICCA/SALITA SPAGNOLETTA,,44.418503,8.954576,,,Via Raffaele Ricca,Genoa,Regione Liguria,16100
0636,BERTUCCIONI 1/GUICCIARDINI,,44.418377,8.956275,,,Via Giuseppe Bertuccioni,Genoa,Regione Liguria,16100
0637,BERTUCCIONI 2/DE STEFANIS,,44.417202,8.954220,,,Via Giuseppe Bertuccioni,Genoa,Regione Liguria,16100
0638,DE STEFANIS 5/MONTICELLI,,44.415524,8.955670,,,Corso Alessandro De Stefanis,Genoa,Regione Liguria,16100
0639,SARDEGNA 1/BONIFACIO,,44.413612,8.955971,,,Corso Sardegna,Genoa,Regione Liguria,16100
0640,SARDEGNA 2/CAGLIARI,,44.412178,8.955282,,,Corso Sardegna,Genoa,Regione Liguria,16100
0641,SARDEGNA 3/NICOLODI,,44.410339,8.954412,,,Corso Sardegna,Genoa,Regione Liguria,16100
0642,ARCHIMEDE/ASL,,44.406872,8.952134,,,Via Archimede,Genoa,Regione Liguria,16100
0644,GUICCIARDINI/PASSO BRACELLI,,44.418457,8.956996,,,Piazza Francesco Guicciardini,Genoa,Regione Liguria,16100
0645,MONTICELLI 2/SARDEGNA,,44.414913,8.956020,,,Via Monticelli,Genoa,Regione Liguria,16100
0646,SAN MARINO 1/FERRARA,,44.422050,8.908838,,,Via San Marino,Genoa,Regione Liguria,16100
0647,SAN MARINO 2/,,44.423992,8.908557,,,Via San Marino,Genoa,Regione Liguria,16100
0648,SAN MARINO 3/MARZABOTTO,,44.426022,8.908432,,,Via San Marino,Genoa,Regione Liguria,16100
0649,CADUTI SENZA CROCE/,,44.426331,8.908828,,,Via Caduti Senza Croce,Genoa,Regione Liguria,16100
0650,GRANAROLO/CAPOLINEA,,44.424763,8.911155,,,Via Bartolomeo Bianco,Genoa,Regione Liguria,16100
0651,CADUTI SENZA CROCE/,,44.426601,8.908382,,,Via San Marino,Genoa,Regione Liguria,16100
0652,SAN MARINO 1/MARZABOTTO,,44.425289,8.908689,,,Via San Marino,Genoa,Regione Liguria,16100
0653,SAN MARINO 2/,,44.423828,8.908360,,,Via San Marino,Genoa,Regione Liguria,16100
0654,FERRARA/,,44.421505,8.909194,,,Via Ferrara,Genoa,Regione Liguria,16100
0655,BRIGNOLE FS/CAPOLINEA,,44.406189,8.946084,,,Piazza Giuseppe Verdi,Genoa,Regione Liguria,16100
0656,NUNZIATA/BANDIERA,,44.413979,8.928628,,,Piazza della Nunziata,Genoa,Regione Liguria,16100
0657,BRIGNOLE DE FERRARI/CARMINE,,44.414871,8.929099,,,Via Brignole De Ferrari,Genoa,Regione Liguria,16100
0658,ALBERGO DEI POVERI/UNIVERSITA',,44.417259,8.928877,,,Piazza Emanuele Brignole,Genoa,Regione Liguria,16100
0659,DOGALI 1/KASSALA,,44.417843,8.926426,,,Corso Dogali,Genoa,Regione Liguria,16100
0660,SAPORITI/NAPOLI,,44.421837,8.925297,,,Via Giuseppe Maria Saporiti,Genoa,Regione Liguria,16100
0661,PALEOCAPA 1/BASSANO,,44.423645,8.927374,,,Via Paleocapa,Genoa,Regione Liguria,16100
0662,PALEOCAPA 2/PIAZZA OREGINA,,44.423382,8.925000,,,Via Paleocapa,Genoa,Regione Liguria,16100
0663,CARBONE/CASACCIA,,44.425312,8.927393,,,Via Giovanni Carbone,Genoa,Regione Liguria,16100
0664,DELLA CELLA/MACULANO,,44.425690,8.927056,,,Via Paolo Della Cella,Genoa,Regione Liguria,16100
0665,BALESTRAZZI 1/BELVEDERE,,44.424919,8.924459,,,Via Pietro Balestrazzi,Genoa,Regione Liguria,16100
0666,BALESTRAZZI 2/ISCHIA,,44.426651,8.925156,,,Via Pietro Balestrazzi,Genoa,Regione Liguria,16100
0667,VESUVIO 1/PERALTO,,44.428688,8.924310,,,Via Vesuvio,Genoa,Regione Liguria,16100
0668,VESUVIO 2/CASE INA,,44.427204,8.922304,,,Via Vesuvio,Genoa,Regione Liguria,16100
0669,VESUVIO/CAPOLINEA SUPERIORE,,44.426472,8.920769,,,Via Vesuvio,Genoa,Regione Liguria,16100
0670,VESUVIO 3/CASE INA,,44.427433,8.922912,,,Via Vesuvio,Genoa,Regione Liguria,16100
0671,VESUVIO 4/PERALTO,,44.428692,8.924623,,,Via Vesuvio,Genoa,Regione Liguria,16100
0672,BALESTRAZZI/ISCHIA,,44.426556,8.925030,,,Via Pietro Balestrazzi,Genoa,Regione Liguria,16100
0674,DELLA CELLA/MACULANO,,44.425785,8.927478,,,Via Paolo Della Cella,Genoa,Regione Liguria,16100
0675,CARBONE/CASACCIA,,44.425175,8.926969,,,Via Giovanni Carbone,Genoa,Regione Liguria,16100
0676,PALEOCAPA 1/PIAZZA OREGINA,,44.423409,8.925207,,,Via Paleocapa,Genoa,Regione Liguria,16100
0677,PALEOCAPA 2/BASSANO,,44.423405,8.927147,,,Via Paleocapa,Genoa,Regione Liguria,16100
0678,SAPORITI/NAPOLI,,44.421745,8.925097,,,Via Giuseppe Maria Saporiti,Genoa,Regione Liguria,16100
0679,DOGALI 1/BASSI,,44.418301,8.925467,,,Corso Dogali,Genoa,Regione Liguria,16100
0680,ALBERGO DEI POVERI/UNIVERSITA',,44.417152,8.929235,,,Piazza Emanuele Brignole,Genoa,Regione Liguria,16100
0681,BRIGNOLE DE FERRARI/CARMINE,,44.414742,8.929525,,,Via Brignole De Ferrari,Genoa,Regione Liguria,16100
0682,GIUSSO 1/BELVEDERE,,44.424877,8.924775,,,Via Candido Giusso,Genoa,Regione Liguria,16100
0683,COSTANZI 1/GIUSSO,,44.427063,8.927167,,,Via Giovanni Costanzi,Genoa,Regione Liguria,16100
0684,COSTANZI 3/FUMAGALLI,,44.427986,8.927876,,,Via Giovanni Costanzi,Genoa,Regione Liguria,16100
0685,COSTANZI 4/OSTELLO,,44.428093,8.928649,,,Via Giovanni Costanzi,Genoa,Regione Liguria,16100
0686,BELVEDERE DA PASSANO/GIUSSO,,44.424492,8.924399,,,Belvedere Gerolamo Da Passano,Genoa,Regione Liguria,16100
0687,ORSINI 1/CAPRERA,,44.395401,8.975897,,,Via Angelo Orsini,Genoa,Regione Liguria,16100
0688,ORSINI 2/SAN PIO X,,44.398479,8.975933,,,Via Angelo Orsini,Genoa,Regione Liguria,16100
0689,ORSINI 3/PARODI,,44.400337,8.975631,,,Via Angelo Orsini,Genoa,Regione Liguria,16100
0690,ORSINI 4/STURLA,,44.401676,8.977697,,,Via Angelo Orsini,Genoa,Regione Liguria,16100
0691,STURLA 3/MARRAS,,44.399643,8.978873,,,Via Sturla,Genoa,Regione Liguria,16100
0692,ISONZO 1/STURLA FS,,44.397621,8.980932,,,Via Isonzo,Genoa,Regione Liguria,16100
0693,RAGAZZI DEL 99/CAPOLINEA,,44.399548,8.981579,,,Via Isonzo,Genoa,Regione Liguria,16100
0694,ISONZO 3/STURLA FS,,44.397293,8.980710,,,Via Isonzo,Genoa,Regione Liguria,16100
0695,STURLA 2/MARRAS,,44.399879,8.979075,,,Via Sturla,Genoa,Regione Liguria,16100
0696,ORSINI 1/STURLA,,44.401695,8.977445,,,Via Angelo Orsini,Genoa,Regione Liguria,16100
0697,ORSINI 2/PARODI,,44.400314,8.975305,,,Via Angelo Orsini,Genoa,Regione Liguria,16100
0698,ORSINI 3/SAN PIO X,,44.398853,8.975461,,,Via Angelo Orsini,Genoa,Regione Liguria,16100
0700,DIAZ/BRIGATE PARTIGIANE,,44.400738,8.946275,,,Via Armando Diaz,Genoa,Regione Liguria,16100
0701,BARABINO/TORINO,,44.399990,8.949325,,,Via Carlo Barabino,Genoa,Regione Liguria,16100
0702,PALERMO/PARETO,,44.399155,8.952721,,,Piazza Palermo,Genoa,Regione Liguria,16100
0703,ROSSELLI 1/PIAVE,,44.394566,8.955100,,,Via Carlo e Nello Rosselli,Genoa,Regione Liguria,16100
0704,ROSSELLI 2/ZARA,,44.394009,8.957482,,,Via Carlo e Nello Rosselli,Genoa,Regione Liguria,16100
0705,GOBETTI/SAURO,,44.394238,8.960878,,,Via Piero Gobetti,Genoa,Regione Liguria,16100
0706,RIGHETTI/MINZONI,,44.394123,8.966993,,,Via Renzo Righetti,Genoa,Regione Liguria,16100
0707,DE GASPARI 1/BRUNO,,44.392723,8.970754,,,Via Oreste De Gaspari,Genoa,Regione Liguria,16100
0708,DE GASPARI 2/BOCCADASSE,,44.391228,8.973881,,,Via Oreste De Gaspari,Genoa,Regione Liguria,16100
0709,BRUNO 1/ITALIA,,44.390976,8.969612,,,Via Giordano Bruno,Genoa,Regione Liguria,16100
0710,GUARDIA/GARRONE,,44.470303,8.896457,,,Via al Santuario di Nostra Signora della Guardia,Genoa,Regione Liguria,16100
0711,RIGHETTI/PEROSI,,44.394218,8.967010,,,Via Renzo Righetti,Genoa,Regione Liguria,16100
0712,GOBETTI 1/SAURO,,44.394398,8.961081,,,Via Piero Gobetti,Genoa,Regione Liguria,16100
0713,GOBETTI 2/ZARA,,44.394043,8.958327,,,Via Piero Gobetti,Genoa,Regione Liguria,16100
0714,ROSSELLI/PIAVE,,44.394966,8.955092,,,Via Carlo e Nello Rosselli,Genoa,Regione Liguria,16100
0715,BARABINO 1/PALERMO,,44.399548,8.951544,,,Via Carlo Barabino,Genoa,Regione Liguria,16100
0716,BARABINO 3/CIPRO,,44.400692,8.946933,,,Via Carlo Barabino,Genoa,Regione Liguria,16100
0717,BRIGATA LIGURIA 2/FIUME,,44.404385,8.944104,,,Via Brigata Liguria,Genoa,Regione Liguria,16100
0718,THAON DI REVEL/BRIGNOLE FS,,44.405582,8.946454,,,Viale Paolo Thaon de Revel,Genoa,Regione Liguria,16100
0719,CORRIDONI 2/MONTALLEGRO,,44.403137,8.962925,,,Via Filippo Corridoni,Genoa,Regione Liguria,16100
0720,MONTEZOVETTO 1/CUS,,44.401367,8.964043,,,Via Monte Zovetto,Genoa,Regione Liguria,16100
0721,MONTEZOVETTO 2/SCUOLE,,44.399193,8.964576,,,Via Monte Zovetto,Genoa,Regione Liguria,16100
0724,BRIGATA SALERNO/ERA,,44.395653,8.984932,,,Via Brigata Salerno,Genoa,Regione Liguria,16100
0725,ROMANA DI QUARTO 1/CEMBRANO,,44.398590,8.989033,,,Via Romana di Quarto,Genoa,Regione Liguria,16100
0726,ROMANA DI QUARTO 2/FRANGIONI,,44.398197,8.990911,,,Via Romana di Quarto,Genoa,Regione Liguria,16100
0727,CIMAROSA/GIOVANNI MAGGIO,,44.396343,8.993017,,,Via Domenico Cimarosa,Genoa,Regione Liguria,16100
0728,PEROTTO/MELEN,,44.422756,8.863493,,,Via Enrico Melen,Genoa,Regione Liguria,16100
0729,ACCIAIO/CAMPO SPORTIVO,,44.418797,8.860237,,,Via dell'Acciaio,Genoa,Regione Liguria,16100
0730,SCHIAFFINO/NIEVO,,44.394230,8.998239,,,Via Simone Schiaffino,Genoa,Regione Liguria,16100
0731,PRASCA/CHIESA,,44.396469,8.997006,,,Via Stefano Prasca,Genoa,Regione Liguria,16100
0732,CARRARA 1/PRASCA,,44.396709,8.996464,,,Via Angelo Carrara,Genoa,Regione Liguria,16100
0733,CARRARA 2/TURR,,44.395653,8.994388,,,Via Angelo Carrara,Genoa,Regione Liguria,16100
0734,ROMANA DI QUARTO 1/FRANGIONI,,44.398304,8.991807,,,Via Romana di Quarto,Genoa,Regione Liguria,16100
0735,ROMANA DI QUARTO 2/CEMBRANO,,44.398808,8.988508,,,Via Romana di Quarto,Genoa,Regione Liguria,16100
0736,ERA/BRIGATA SALERNO,,44.395584,8.984282,,,Via Vittorino Era,Genoa,Regione Liguria,16100
0737,LEONARDO DA VINCI/,,44.397861,8.965076,,,Piazza Leonardo da Vinci,Genoa,Regione Liguria,16100
0738,MONTEZOVETTO 1/SCUOLE,,44.399414,8.964650,,,Via Monte Zovetto,Genoa,Regione Liguria,16100
0739,MONTEZOVETTO 2/CUS,,44.401512,8.964131,,,Via Monte Zovetto,Genoa,Regione Liguria,16100
0740,CORRIDONI 1/MONTALLEGRO,,44.403427,8.962943,,,Via Filippo Corridoni,Genoa,Regione Liguria,16100
0743,TOMMASEO/MONTEVIDEO,,44.402546,8.954541,,,Via Montevideo,Genoa,Regione Liguria,16100
0744,LAGUSTENA 2/MOSSO,,44.407654,8.977249,,,Via Silvio Lagustena,Genoa,Regione Liguria,16100
0745,BORGORATTI 1/SAPETO,,44.407593,8.979391,,,Via Borgoratti,Genoa,Regione Liguria,16100
0746,BORGORATTI 2/BOERO,,44.405384,8.982349,,,Via Borgoratti,Genoa,Regione Liguria,16100
0747,POSALUNGA 1/TIMAVO,,44.404366,8.984739,,,Via Posalunga,Genoa,Regione Liguria,16100
0748,POSALUNGA 2/SCUOLA,,44.406567,8.986989,,,Via Posalunga,Genoa,Regione Liguria,16100
0749,ROTONDA/CADIGHIARA,,44.408966,8.988523,,,Piazza Rotonda,Genoa,Regione Liguria,16100
0750,ROTONDA/CAPOLINEA,,44.408840,8.988448,,,Via Posalunga,Genoa,Regione Liguria,16100
0751,POSALUNGA 1/SCUOLA,,44.406544,8.986855,,,Via Posalunga,Genoa,Regione Liguria,16100
0752,POSALUNGA 2/TIMAVO,,44.404472,8.984807,,,Via Posalunga,Genoa,Regione Liguria,16100
0753,BORGORATTI 1/SAN ROCCO,,44.404930,8.983365,,,Via Borgoratti,Genoa,Regione Liguria,16100
0754,BORGORATTI 2/SAPETO,,44.407623,8.979646,,,Via Borgoratti,Genoa,Regione Liguria,16100
0755,LAGUSTENA/MOSSO,,44.407635,8.977103,,,Via Silvio Lagustena,Genoa,Regione Liguria,16100
0756,SAN MARTINO/PUGGIA,,44.405563,8.975372,,,Via San Martino,Genoa,Regione Liguria,16100
0757,SCRIBANTI/SALITA DELLA NOCE,,44.406872,8.974908,,,Via Angelo Scribanti,Genoa,Regione Liguria,16100
0758,TOMMASEO/CAFFA,,44.402420,8.953586,,,Piazza Tommaseo,Genoa,Regione Liguria,16100
0759,STURLA 1/SAN MARTINO,,44.405003,8.976063,,,Via Sturla,Genoa,Regione Liguria,16100
0760,STURLA 2/ORSINI,,44.402008,8.978182,,,Via Sturla,Genoa,Regione Liguria,16100
0761,STURLA 4/STURLA FS,,44.397114,8.980611,,,Via Sturla,Genoa,Regione Liguria,16100
0762,STURLA 5/ISTITUTO KING,,44.396168,8.980927,,,Via Sturla,Genoa,Regione Liguria,16100
0763,PIAZZA STURLA/CHIGHIZOLA,,44.394688,8.980854,,,Piazza Sturla,Genoa,Regione Liguria,16100
0765,PIAZZA STURLA/CHIESA,,44.394875,8.980821,,,Piazza Sturla,Genoa,Regione Liguria,16100
0766,STURLA 1/STURLA FS,,44.396637,8.981276,,,Via Sturla,Genoa,Regione Liguria,16100
0767,STURLA 3/PRATOLONGO,,44.402794,8.978405,,,Via Sturla,Genoa,Regione Liguria,16100
0768,DONGHI 1/CHIESA,,44.408192,8.966914,,,Via Donghi,Genoa,Regione Liguria,16100
0769,DONGHI 2/MADONNETTA,,44.410694,8.969232,,,Via Donghi,Genoa,Regione Liguria,16100
0770,DONGHI 3/MANZASCO,,44.412380,8.970257,,,Via Donghi,Genoa,Regione Liguria,16100
0771,DONGHI/CAPOLINEA,,44.413025,8.972196,,,Via Donghi,Genoa,Regione Liguria,16100
0772,DONGHI 1/MANZASCO,,44.412235,8.969838,,,Via Donghi,Genoa,Regione Liguria,16100
0773,DONGHI 2/MADONNETTA,,44.410618,8.969089,,,Via Donghi,Genoa,Regione Liguria,16100
0774,MANUZIO 1/GAULLI,,44.409451,8.966639,,,Via Aldo Manuzio,Genoa,Regione Liguria,16100
0775,MANUZIO 2/MARINA DI ROBILANT,,44.407948,8.964569,,,Via Aldo Manuzio,Genoa,Regione Liguria,16100
0776,MONTICELLI 1/CARLOFORTE,,44.414146,8.954437,,,Via Monticelli,Genoa,Regione Liguria,16100
0777,FEREGGIANO 1/GALILEO FERRARIS,,44.415611,8.957376,,,Via Fereggiano,Genoa,Regione Liguria,16100
0779,FEREGGIANO 3/MORO,,44.418240,8.965193,,,Via Fereggiano,Genoa,Regione Liguria,16100
0781,FEREGGIANO 1/MORO,,44.417992,8.965076,,,Via Fereggiano,Genoa,Regione Liguria,16100
0782,FEREGGIANO 2/BIGA,,44.416725,8.960876,,,Via Fereggiano,Genoa,Regione Liguria,16100
0783,FEREGGIANO 3/GALILEO FERRARIS,,44.415989,8.957750,,,Via Fereggiano,Genoa,Regione Liguria,16100
0784,TEGLIA 2/GIUFFRIDA,,44.453602,8.895912,,,Via Teglia,Genoa,Regione Liguria,16100
0785,GALLIERA 1/CARLOFORTE,,44.413456,8.953945,,,Corso Galliera,Genoa,Regione Liguria,16100
0786,GALLIERA 2/DON ORIONE,,44.411560,8.953955,,,Corso Galliera,Genoa,Regione Liguria,16100
0787,GALLIERA 3/MIGLIO,,44.409496,8.953185,,,Corso Galliera,Genoa,Regione Liguria,16100
0788,TEGLIA 1/GIUFFRIDA,,44.453384,8.895539,,,Via Teglia,Genoa,Regione Liguria,16100
0789,BRIGATA LIGURIA 1/PERANI,,44.403698,8.943912,,,Via Brigata Liguria,Genoa,Regione Liguria,16100
0790,TORINO 3/BUENOS AIRES,,44.403313,8.951392,,,Corso Torino,Genoa,Regione Liguria,16100
0791,DE STEFANIS 3/STADIO,,44.418030,8.952843,,,Corso Alessandro De Stefanis,Genoa,Regione Liguria,16100
0792,DE STEFANIS 4/COSTA,,44.420006,8.950335,,,Corso Alessandro De Stefanis,Genoa,Regione Liguria,16100
0793,DE STEFANIS 5/PARENZO,,44.421692,8.948738,,,Corso Alessandro De Stefanis,Genoa,Regione Liguria,16100
0794,ISTRIA 1/MERCATO,,44.423729,8.948356,,,Lungobisagno Istria,Genoa,Regione Liguria,16100
0795,ISTRIA 2/GARRASSINI,,44.425053,8.948620,,,Lungobisagno Istria,Genoa,Regione Liguria,16100
0796,ISTRIA 3/PONTE MONTEVERDE,,44.427567,8.952167,,,Lungobisagno Istria,Genoa,Regione Liguria,16100
0797,ISTRIA 5/PASSERELLA,,44.429424,8.957075,,,Lungobisagno Istria,Genoa,Regione Liguria,16100
0798,ISTRIA 6/PONTE BEZZECCA,,44.430798,8.958711,,,Lungobisagno Istria,Genoa,Regione Liguria,16100
0799,DALMAZIA 1/ADRIATICO,,44.433399,8.961644,,,Lungobisagno Dalmazia,Genoa,Regione Liguria,16100
0800,DALMAZIA 2/PONTE CARREGA,,44.435349,8.962923,,,Lungobisagno Dalmazia,Genoa,Regione Liguria,16100
0801,DALMAZIA 3/GUGLIELMETTI,,44.439041,8.963796,,,Lungobisagno Dalmazia,Genoa,Regione Liguria,16100
0802,DALMAZIA 4/PONTE FERITORE,,44.441040,8.964697,,,Lungobisagno Dalmazia,Genoa,Regione Liguria,16100
0803,ADAMOLI 1/SPALATO,,44.442696,8.965871,,,Via Gelasio Adamoli,Genoa,Regione Liguria,16100
0804,ADAMOLI 3/SCIORBA,,44.445797,8.969406,,,Via Gelasio Adamoli,Genoa,Regione Liguria,16100
0805,ADAMOLI 5/CAVA,,44.449318,8.973836,,,Via Gelasio Adamoli,Genoa,Regione Liguria,16100
0806,ADAMOLI 6/MOLASSANA,,44.451538,8.976908,,,Via Gelasio Adamoli,Genoa,Regione Liguria,16100
0807,ADAMOLI 1/MOLASSANA,,44.451393,8.976273,,,Via Gelasio Adamoli,Genoa,Regione Liguria,16100
0808,ADAMOLI 2/CAVA,,44.448864,8.972914,,,Via Gelasio Adamoli,Genoa,Regione Liguria,16100
0809,ADAMOLI 3/PONTE GALLO,,44.446823,8.970344,,,Via Gelasio Adamoli,Genoa,Regione Liguria,16100
0810,ADAMOLI 5/SPALATO,,44.442787,8.965590,,,Via Gelasio Adamoli,Genoa,Regione Liguria,16100
0811,DALMAZIA 1/PONTE FERITORE,,44.441036,8.964481,,,Lungobisagno Dalmazia,Genoa,Regione Liguria,16100
0812,LORIA 7/MAGRETTI,,44.421303,8.959278,,,Via Lamberto Loria,Genoa,Regione Liguria,16100
0813,DALMAZIA 3/PONTE CARREGA,,44.435390,8.962752,,,Lungobisagno Dalmazia,Genoa,Regione Liguria,16100
0814,DALMAZIA 4/ADRIATICO,,44.433060,8.961086,,,Lungobisagno Dalmazia,Genoa,Regione Liguria,16100
0815,DALMAZIA 5/PONTE BEZZECCA,,44.431313,8.959106,,,Lungobisagno Dalmazia,Genoa,Regione Liguria,16100
0816,ISTRIA 1/PASSERELLA,,44.429153,8.956505,,,Lungobisagno Istria,Genoa,Regione Liguria,16100
0817,ISTRIA 3/PONTE MONTEVERDE,,44.427586,8.951776,,,Lungobisagno Istria,Genoa,Regione Liguria,16100
0818,ISTRIA 4/MERCATO,,44.423885,8.948216,,,Lungobisagno Istria,Genoa,Regione Liguria,16100
0819,DE STEFANIS 1/PARENZO,,44.421478,8.948678,,,Corso Alessandro De Stefanis,Genoa,Regione Liguria,16100
0820,DE STEFANIS 2/MONTEBRUNO,,44.420124,8.949827,,,Corso Alessandro De Stefanis,Genoa,Regione Liguria,16100
0821,DE STEFANIS 4/STADIO,,44.417915,8.952645,,,Corso Alessandro De Stefanis,Genoa,Regione Liguria,16100
0822,SARDEGNA 4/PIAZZA GIUSTI,,44.406086,8.952405,,,Corso Sardegna,Genoa,Regione Liguria,16100
0823,TORINO 1/BUENOS AIRES,,44.403160,8.951193,,,Corso Torino,Genoa,Regione Liguria,16100
0824,RESASCO/CAPOLINEA,,44.428703,8.953224,,,Piazzale Giovanni Battista Resasco,Genoa,Regione Liguria,16100
0825,BASSANO/SAPORITI,,44.423176,8.926379,,,Via Bassano,Genoa,Regione Liguria,16100
0826,MONTEGRAPPA 1/MONTESANO,,44.408310,8.948201,,,Corso Monte Grappa,Genoa,Regione Liguria,16100
0827,MONTEGRAPPA 2/BANCHERO,,44.409500,8.949478,,,Corso Monte Grappa,Genoa,Regione Liguria,16100
0828,MONTEGRAPPA 3/ASIAGO,,44.410816,8.950221,,,Corso Monte Grappa,Genoa,Regione Liguria,16100
0829,MONTEGRAPPA 4/MONTE CENGIO,,44.410355,8.948766,,,Corso Monte Grappa,Genoa,Regione Liguria,16100
0830,MONTEGRAPPA 5/MAGISTERO,,44.411324,8.949216,,,Corso Monte Grappa,Genoa,Regione Liguria,16100
0831,GIARDINO/MONTEGRAPPA,,44.413891,8.949217,,,Largo Gaetano Giardino,Genoa,Regione Liguria,16100
0832,BURLANDO 1/SALITA MONTALDO,,44.416767,8.947019,,,Via Antonio Burlando,Genoa,Regione Liguria,16100
0833,BURLANDO 2/PRIVATA BURLANDO,,44.418358,8.945121,,,Via Antonio Burlando,Genoa,Regione Liguria,16100
0834,BURLANDO 3/OLIVERI,,44.422237,8.944086,,,Via Antonio Burlando,Genoa,Regione Liguria,16100
0835,BURLANDO 4/SCUOLE,,44.424053,8.944741,,,Via Antonio Burlando,Genoa,Regione Liguria,16100
0836,GINESTRE 1/CHIESA,,44.425194,8.944816,,,Via delle Ginestre,Genoa,Regione Liguria,16100
0837,GINESTRE 2/GIARDINI DI TOMASO,,44.426548,8.943957,,,Via delle Ginestre,Genoa,Regione Liguria,16100
0838,GINESTRE/CAPOLINEA,,44.426205,8.944218,,,Via delle Ginestre,Genoa,Regione Liguria,16100
0839,GINESTRE 1/SCALINATA,,44.426491,8.943716,,,Via delle Ginestre,Genoa,Regione Liguria,16100
0840,GINESTRE 2/CHIESA,,44.425240,8.944758,,,Via delle Ginestre,Genoa,Regione Liguria,16100
0841,BURLANDO 1/SCUOLE,,44.423992,8.944659,,,Via Antonio Burlando,Genoa,Regione Liguria,16100
0842,BURLANDO 2/OLIVERI,,44.422157,8.944019,,,Via Antonio Burlando,Genoa,Regione Liguria,16100
0843,BURLANDO 3/PRIVATA BURLANDO,,44.418255,8.945019,,,Via Antonio Burlando,Genoa,Regione Liguria,16100
0844,BURLANDO 4/SALITA MONTALDO,,44.416576,8.947082,,,Via Antonio Burlando,Genoa,Regione Liguria,16100
0845,GIARDINO/BURLANDO,,44.414181,8.948975,,,Largo Gaetano Giardino,Genoa,Regione Liguria,16100
0846,MONTEGRAPPA 1/MAGISTERO,,44.411118,8.949055,,,Corso Monte Grappa,Genoa,Regione Liguria,16100
0847,MONTEGRAPPA 2/MONTE CENGIO,,44.410332,8.948441,,,Corso Monte Grappa,Genoa,Regione Liguria,16100
0848,MONTEGRAPPA 3/ASIAGO,,44.410686,8.950080,,,Corso Monte Grappa,Genoa,Regione Liguria,16100
0849,MONTEGRAPPA 4/BANCHERO,,44.409252,8.949095,,,Corso Monte Grappa,Genoa,Regione Liguria,16100
0850,MONTEGRAPPA 5/MONTESANO,,44.408176,8.947635,,,Corso Monte Grappa,Genoa,Regione Liguria,16100
0851,BIANCHERI/CAPOLINEA,,44.424164,8.848595,,,Via Giuseppe Biancheri,Genoa,Regione Liguria,16100
0852,MERANO/SANT'ALBERTO,,44.427227,8.838996,,,Via Merano,Genoa,Regione Liguria,16100
0853,SANT'ALBERTO 2/CASE LIBERTAS,,44.429024,8.838138,,,Via Sant'Alberto,Genoa,Regione Liguria,16100
0854,SANT'ALBERTO 3/,,44.431648,8.838730,,,Via Sant'Alberto,Genoa,Regione Liguria,16100
0855,SANT'ALBERTO 4/MOLINASSI,,44.433205,8.838448,,,Via Sant'Alberto,Genoa,Regione Liguria,16100
0856,MOLINASSI/ROLLINO,,44.434227,8.838161,,,Via al Torrente Molinassi,Genoa,Regione Liguria,16100
0857,ROLLINO 1/BRISCATA,,44.433098,8.839554,,,Via Rollino,Genoa,Regione Liguria,16100
0858,ROLLINO 2/,,44.432304,8.840846,,,Via Rollino,Genoa,Regione Liguria,16100
0859,ROLLINO 3/,,44.433292,8.841536,,,Via Rollino,Genoa,Regione Liguria,16100
0860,ROLLINO 4/,,44.435078,8.840483,,,Via Rollino,Genoa,Regione Liguria,16100
0861,ROLLINO 5/,,44.435936,8.839368,,,Via Rollino,Genoa,Regione Liguria,16100
0862,ROLLINO 6/,,44.436920,8.839467,,,Via Rollino,Genoa,Regione Liguria,16100
0863,ROLLINO 7/,,44.437859,8.839446,,,Via Rollino,Genoa,Regione Liguria,16100
0864,ROLLINO 8/SUPERIORE CATALDI,,44.438286,8.838244,,,Via Rollino,Genoa,Regione Liguria,16100
0865,ROLLINO/CAPOLINEA,,44.439823,8.837141,,,Via Rollino,Genoa,Regione Liguria,16100
0866,ROLLINO 4/SUPERIORE CATALDI,,44.438446,8.838259,,,Via Rollino,Genoa,Regione Liguria,16100
0867,ROLLINO 5/,,44.437832,8.839584,,,Via Rollino,Genoa,Regione Liguria,16100
0868,ROLLINO 6/,,44.436684,8.839422,,,Via Rollino,Genoa,Regione Liguria,16100
0869,ROLLINO 7/,,44.435928,8.839314,,,Via Rollino,Genoa,Regione Liguria,16100
0870,ROLLINO 8/,,44.435177,8.840563,,,Via Rollino,Genoa,Regione Liguria,16100
0871,ROLLINO 9/,,44.433289,8.841443,,,Via Rollino,Genoa,Regione Liguria,16100
0872,ROLLINO 10/,,44.432373,8.840656,,,Via Rollino,Genoa,Regione Liguria,16100
0873,ROLLINO 11/BRISCATA,,44.433262,8.839571,,,Via Rollino,Genoa,Regione Liguria,16100
0874,MOLINASSI/BRISCATA,,44.434551,8.838430,,,Via al Torrente Molinassi,Genoa,Regione Liguria,16100
0875,SANT'ALBERTO 5/MOLINASSI,,44.433033,8.838378,,,Via Sant'Alberto,Genoa,Regione Liguria,16100
0876,SANT'ALBERTO 6/,,44.431637,8.838639,,,Via Sant'Alberto,Genoa,Regione Liguria,16100
0877,SANT'ALBERTO 7/CASE LIBERTAS,,44.428883,8.838058,,,Via Sant'Alberto,Genoa,Regione Liguria,16100
0878,CASE LIBERTAS/INSURREZIONE,,44.428654,8.835752,,,Via dell'Insurrezione del 23-25 Aprile 1945,Genoa,Regione Liguria,16100
0879,SANT'ALBERTO 5/,,44.431507,8.837730,,,Via Sant'Alberto,Genoa,Regione Liguria,16100
0880,SANT'ALBERTO 6/,,44.432423,8.837166,,,Via Sant'Alberto,Genoa,Regione Liguria,16100
0881,SANT'ALBERTO 7/,,44.433628,8.837045,,,Via Sant'Alberto,Genoa,Regione Liguria,16100
0882,SANT'ALBERTO 8/,,44.433624,8.836124,,,Via Sant'Alberto,Genoa,Regione Liguria,16100
0884,SANT'ALBERTO/CIMITERO SESTRI,,44.436195,8.834025,,,Via Sant'Alberto,Genoa,Regione Liguria,16100
0885,SANT'ALBERTO 1/,,44.433395,8.836014,,,Via Sant'Alberto,Genoa,Regione Liguria,16100
0886,SANT'ALBERTO 2/,,44.433483,8.837100,,,Via Sant'Alberto,Genoa,Regione Liguria,16100
0887,SANT'ALBERTO 3/,,44.432358,8.837044,,,Via Sant'Alberto,Genoa,Regione Liguria,16100
0888,SANT'ALBERTO 4/,,44.431873,8.837921,,,Via Sant'Alberto,Genoa,Regione Liguria,16100
0889,BORZOLI 2/LEONARDI,,44.425934,8.856001,,,Via Borzoli,Genoa,Regione Liguria,16100
0890,BORZOLI 3/DA BISSONE,,44.427166,8.857137,,,Via Borzoli,Genoa,Regione Liguria,16100
0891,BORZOLI 4/AUTOSTRADA,,44.429379,8.858579,,,Via Borzoli,Genoa,Regione Liguria,16100
0892,BORZOLI 5/FRINGUELLO,,44.430443,8.860044,,,Via Borzoli,Genoa,Regione Liguria,16100
0893,BORZOLI 6/CAMPO SPORTIVO,,44.432423,8.863576,,,Via Borzoli,Genoa,Regione Liguria,16100
0894,BORZOLI 7/CIMITERO,,44.433422,8.866791,,,Via Borzoli,Genoa,Regione Liguria,16100
0895,BORZOLI 8/MONTE SLEME,,44.434311,8.869180,,,Via Borzoli,Genoa,Regione Liguria,16100
0896,BORZOLI 9/VENZANO,,44.436619,8.873328,,,Via Borzoli,Genoa,Regione Liguria,16100
0897,BORZOLI 10/CRISTO DI MARMO,,44.437801,8.875315,,,Via Borzoli,Genoa,Regione Liguria,16100
0898,BORZOLI 11/BURLO,,44.439133,8.878210,,,Via Borzoli,Genoa,Regione Liguria,16100
0899,BORZOLI 12/,,44.439266,8.880142,,,Via Borzoli,Genoa,Regione Liguria,16100
0900,BORZOLI 13/FEGINO,,44.439827,8.880857,,,Via Borzoli,Genoa,Regione Liguria,16100
0901,BORZOLI 14/INTERMEDIO,,44.437286,8.883584,,,Via Borzoli,Genoa,Regione Liguria,16100
0902,FERRI 1/FEGINO,,44.437279,8.887507,,,Via Evandro Ferri,Genoa,Regione Liguria,16100
0903,AVEZZANA/,,44.418861,8.919108,,,Via Giuseppe Avezzana,Genoa,Regione Liguria,16100
0904,PALLAVICINI/CAPOLINEA,,44.437336,8.892456,,,Piazza Durazzo Pallavicini,Genoa,Regione Liguria,16100
0905,RAGAZZI DEL 99/CAPOLINEA,,44.399883,8.981489,,,Piazza Ragazzi del '99,Genoa,Regione Liguria,16100
0906,FERRI 5/FEGINO,,44.436848,8.887104,,,Via Evandro Ferri,Genoa,Regione Liguria,16100
0907,BORZOLI 1/INTERMEDIO,,44.437607,8.883257,,,Via Borzoli,Genoa,Regione Liguria,16100
0908,BORZOLI 2/FEGINO,,44.440304,8.880131,,,Via Borzoli,Genoa,Regione Liguria,16100
0909,BORZOLI 3/,,44.439484,8.880134,,,Via Borzoli,Genoa,Regione Liguria,16100
0910,BORZOLI 4/BURLO,,44.439144,8.877835,,,Via Borzoli,Genoa,Regione Liguria,16100
0911,BORZOLI 5/CRISTO DI MARMO,,44.437809,8.875069,,,Via Borzoli,Genoa,Regione Liguria,16100
0912,BORZOLI 6/VENZANO,,44.436115,8.872568,,,Via Borzoli,Genoa,Regione Liguria,16100
0913,BORZOLI 7/MONTE SLEME,,44.434334,8.868872,,,Via Borzoli,Genoa,Regione Liguria,16100
0914,BORZOLI 8/CIMITERO,,44.433437,8.866427,,,Via Borzoli,Genoa,Regione Liguria,16100
0915,BORZOLI 9/CAMPO SPORTIVO,,44.432339,8.863235,,,Via Borzoli,Genoa,Regione Liguria,16100
0916,BORZOLI 10/FRINGUELLO,,44.430809,8.860416,,,Via Borzoli,Genoa,Regione Liguria,16100
0917,BORZOLI 11/AUTOSTRADA,,44.429340,8.858407,,,Via Borzoli,Genoa,Regione Liguria,16100
0918,BORZOLI 12/DA BISSONE,,44.427544,8.857425,,,Via Borzoli,Genoa,Regione Liguria,16100
0919,CHIARAVAGNA 8/DA BISSONE,,44.428535,8.854097,,,Via Chiaravagna,Genoa,Regione Liguria,16100
0920,CHIARAVAGNA 9/BELARDI,,44.426624,8.853168,,,Via Chiaravagna,Genoa,Regione Liguria,16100
0927,PERRONE 2/BOSCHETTO,,44.433529,8.885766,,,Corso Ferdinando Maria Perrone,Genoa,Regione Liguria,16100
0928,PERRONE 3/QUATTRO PALAZZI,,44.429417,8.885590,,,Corso Ferdinando Maria Perrone,Genoa,Regione Liguria,16100
0930,PERRONE 5/LORENZI,,44.428516,8.883263,,,Corso Ferdinando Maria Perrone,Genoa,Regione Liguria,16100
0931,PERRONE 6/QUATTRO PALAZZI,,44.429573,8.886048,,,Corso Ferdinando Maria Perrone,Genoa,Regione Liguria,16100
0932,PERRONE 7/BOSCHETTO,,44.433773,8.885889,,,Corso Ferdinando Maria Perrone,Genoa,Regione Liguria,16100
0934,LAGACCIO 1/SAN ROCCO,,44.417393,8.917849,,,Via del Lagaccio,Genoa,Regione Liguria,16100
0935,LAGACCIO 2/CENTURIONE,,44.419102,8.918775,,,Via del Lagaccio,Genoa,Regione Liguria,16100
0936,LAGACCIO 3/CASERMA,,44.421440,8.918430,,,Via del Lagaccio,Genoa,Regione Liguria,16100
0937,LAGACCIO 4/AVEZZANA,,44.420300,8.918529,,,Via del Lagaccio,Genoa,Regione Liguria,16100
0938,PALLAVICINI/,,44.437302,8.892377,,,Piazza Durazzo Pallavicini,Genoa,Regione Liguria,16100
0939,VEZZANI 2/CAMBIASO,,44.438053,8.896936,,,Via Faliero Vezzani,Genoa,Regione Liguria,16100
0940,VEZZANI 3/STUGGIA,,44.439049,8.899034,,,Via Faliero Vezzani,Genoa,Regione Liguria,16100
0941,VEZZANI 4/,,44.440613,8.900738,,,Via Faliero Vezzani,Genoa,Regione Liguria,16100
0942,VEZZANI 5/FORNACE DEL GARBO,,44.441113,8.902587,,,Via Faliero Vezzani,Genoa,Regione Liguria,16100
0943,FORNACE DEL GARBO 1/RONCASOLO,,44.440891,8.906230,,,Via alla Fornace del Garbo,Genoa,Regione Liguria,16100
0944,FORNACE DEL GARBO 2/PENTEMA,,44.440903,8.906930,,,Via alla Fornace del Garbo,Genoa,Regione Liguria,16100
0945,FORNACE DEL GARBO 3/CAREGHINO,,44.440666,8.908898,,,Via alla Fornace del Garbo,Genoa,Regione Liguria,16100
0946,FORNACE DEL GARBO 4/,,44.439465,8.909985,,,Via alla Fornace del Garbo,Genoa,Regione Liguria,16100
0947,FORNACE DEL GARBO 5/OLIVERI,,44.437920,8.910830,,,Via alla Fornace del Garbo,Genoa,Regione Liguria,16100
0948,CHIESA DEL GARBO/CAPOLINEA,,44.436607,8.907988,,,Piazza del Garbo,Genoa,Regione Liguria,16100
0949,FORNACE DEL GARBO 1/OLIVERI,,44.437939,8.910926,,,Via alla Fornace del Garbo,Genoa,Regione Liguria,16100
0950,FORNACE DEL GARBO 2/,,44.439556,8.910261,,,Via alla Fornace del Garbo,Genoa,Regione Liguria,16100
0951,FORNACE DEL GARBO 3/CAREGHINO,,44.440777,8.908746,,,Via alla Fornace del Garbo,Genoa,Regione Liguria,16100
0952,FORNACE DEL GARBO 4/PENTEMA,,44.440769,8.906988,,,Via alla Fornace del Garbo,Genoa,Regione Liguria,16100
0953,FORNACE DEL GARBO 5/RONCASOLO,,44.441002,8.905984,,,Via alla Fornace del Garbo,Genoa,Regione Liguria,16100
0954,VEZZANI 1/FORNACE DEL GARBO,,44.441120,8.902373,,,Via Faliero Vezzani,Genoa,Regione Liguria,16100
0955,VEZZANI 2/,,44.440647,8.900516,,,Via Faliero Vezzani,Genoa,Regione Liguria,16100
0956,VEZZANI 4/CAMBIASO,,44.438400,8.897531,,,Via Faliero Vezzani,Genoa,Regione Liguria,16100
0957,BARACCA/VIGNA,,44.425175,8.849527,,,Piazza Francesco Baracca,Genoa,Regione Liguria,16100
0958,CANEPA 2/DEL CARRETTO,,44.428993,8.851816,,,Viale Carlo Canepa,Genoa,Regione Liguria,16100
0959,OLIVA 1/OSPEDALE DI SESTRI,,44.430790,8.852045,,,Via Domenico Oliva,Genoa,Regione Liguria,16100
0960,OLIVA 2/AQUILEIA,,44.432640,8.851661,,,Via Domenico Oliva,Genoa,Regione Liguria,16100
0961,SEDICI GIUGNO 1/TRAVERSA,,44.433243,8.848041,,,Via 16 Giugno 1944,Genoa,Regione Liguria,16100
0962,CONSIGLIERE/COSTA FS,,44.432621,8.845245,,,Piazza Vittorio Consigliere,Genoa,Regione Liguria,16100
0963,SEDICI GIUGNO 2/TRAVERSA,,44.433357,8.848659,,,Via 16 Giugno 1944,Genoa,Regione Liguria,16100
0964,LANDI 2/CAPOLINEA,,44.416512,8.890524,,,Via dei Landi,Genoa,Regione Liguria,16100
0965,LANDI 3/SCALINATA,,44.415871,8.890900,,,Via dei Landi,Genoa,Regione Liguria,16100
0966,BALBI PIOVERA/PASCOLI,,44.411495,8.899485,,,Via Giacomo Balbi Piovera,Genoa,Regione Liguria,16100
0967,SCASSI/OSPEDALE,,44.412395,8.897260,,,Corso Onofrio Scassi,Genoa,Regione Liguria,16100
0968,MAGELLANO 1/SAN BARBORINO,,44.413151,8.896511,,,Corso Ferdinando Magellano,Genoa,Regione Liguria,16100
0969,MAGELLANO 2/SCALINATA,,44.413567,8.895199,,,Corso Ferdinando Magellano,Genoa,Regione Liguria,16100
0970,MARTINETTI 2/VASCO DA GAMA,,44.415421,8.895161,,,Corso Luigi Andrea Martinetti,Genoa,Regione Liguria,16100
0971,MARTINETTI 3/CEVASCO,,44.416553,8.895621,,,Corso Luigi Andrea Martinetti,Genoa,Regione Liguria,16100
0972,MARTINETTI 4/POSTE,,44.418007,8.896081,,,Corso Luigi Andrea Martinetti,Genoa,Regione Liguria,16100
0973,MARTINETTI 5/,,44.418762,8.896117,,,Corso Luigi Andrea Martinetti,Genoa,Regione Liguria,16100
0974,MARTINETTI 6/,,44.419243,8.896692,,,Corso Luigi Andrea Martinetti,Genoa,Regione Liguria,16100
0975,MARTINETTI 7/BIVIO BELVEDERE,,44.421215,8.898027,,,Corso Luigi Andrea Martinetti,Genoa,Regione Liguria,16100
0976,BELVEDERE 1/POWELL,,44.420280,8.896092,,,Corso Belvedere,Genoa,Regione Liguria,16100
0977,POWELL 1/,,44.421043,8.894659,,,Via Robert Baden Powell,Genoa,Regione Liguria,16100
0978,POWELL 2/,,44.421555,8.895818,,,Via Robert Baden Powell,Genoa,Regione Liguria,16100
0979,BELVEDERE 2/SCALINATA,,44.419571,8.894835,,,Corso Belvedere,Genoa,Regione Liguria,16100
0980,BELVEDERE/CAPOLINEA,,44.417950,8.893431,,,Corso Belvedere,Genoa,Regione Liguria,16100
0981,BELVEDERE 1/SCALINATA,,44.419594,8.894956,,,Corso Belvedere,Genoa,Regione Liguria,16100
0982,CANTORE 3/VILLA SCASSI,,44.410992,8.896159,,,Via Antonio Cantore,Genoa,Regione Liguria,16100
0983,BELVEDERE 2/POWELL,,44.420170,8.896213,,,Corso Belvedere,Genoa,Regione Liguria,16100
0984,BELVEDERE 3/MARTINETTI,,44.421238,8.897733,,,Corso Belvedere,Genoa,Regione Liguria,16100
0985,MARTINETTI 2/,,44.418884,8.895699,,,Corso Luigi Andrea Martinetti,Genoa,Regione Liguria,16100
0986,MARTINETTI 3/,,44.418941,8.896681,,,Corso Luigi Andrea Martinetti,Genoa,Regione Liguria,16100
0987,MARTINETTI 4/POSTE,,44.417984,8.895940,,,Corso Luigi Andrea Martinetti,Genoa,Regione Liguria,16100
0988,MARTINETTI 5/CEVASCO,,44.416542,8.895463,,,Corso Luigi Andrea Martinetti,Genoa,Regione Liguria,16100
0989,MARTINETTI 6/VASCO DA GAMA,,44.415058,8.894704,,,Corso Luigi Andrea Martinetti,Genoa,Regione Liguria,16100
0990,MAGELLANO 1/SCALINATA,,44.413486,8.894805,,,Corso Ferdinando Magellano,Genoa,Regione Liguria,16100
0991,SCASSI/OSPEDALE,,44.412292,8.897346,,,Corso Onofrio Scassi,Genoa,Regione Liguria,16100
0992,BALBI PIOVERA/BECCARIA,,44.411266,8.898215,,,Via Giacomo Balbi Piovera,Genoa,Regione Liguria,16100
0993,CANTORE 4/PITTALUGA,,44.410927,8.897048,,,Via Antonio Cantore,Genoa,Regione Liguria,16100
0994,FARINI/MONTI,,44.413757,8.891170,,,Via Luigi Carlo Farini,Genoa,Regione Liguria,16100
0995,MONTI 1/LANDI,,44.415604,8.891793,,,Via Gian Battista Monti,Genoa,Regione Liguria,16100
0996,MONTI 2/TOSA,,44.414841,8.891599,,,Via Gian Battista Monti,Genoa,Regione Liguria,16100
0997,LANDI 1/BATTAGLINI,,44.416195,8.891391,,,Via dei Landi,Genoa,Regione Liguria,16100
0998,ARRIVABENE/,,44.431389,8.853459,,,Via Giovanni Arrivabene,Genoa,Regione Liguria,16100
0999,PIAZZA ARRIVABENE/,,44.433578,8.854255,,,Piazza Silvio Arrivabene,Genoa,Regione Liguria,16100
1000,CHIARAVAGNA 2/BUXIO,,44.435703,8.854567,,,Via Chiaravagna,Genoa,Regione Liguria,16100
1001,CHIARAVAGNA 3/PANIGARO,,44.438030,8.854790,,,Via Chiaravagna,Genoa,Regione Liguria,16100
1002,CHIARAVAGNA 4/CASSINELLE,,44.439934,8.855165,,,Via Chiaravagna,Genoa,Regione Liguria,16100
1003,CHIARAVAGNA 5/,,44.441269,8.855123,,,Via Chiaravagna,Genoa,Regione Liguria,16100
1004,CHIARAVAGNA 1/,,44.443573,8.854616,,,Via Chiaravagna,Genoa,Regione Liguria,16100
1005,CHIARAVAGNA 2/,,44.441120,8.855099,,,Via Chiaravagna,Genoa,Regione Liguria,16100
1006,CHIARAVAGNA 3/CASSINELLE,,44.439846,8.855065,,,Via Chiaravagna,Genoa,Regione Liguria,16100
1007,CHIARAVAGNA 4/PANIGARO,,44.438049,8.854631,,,Via Chiaravagna,Genoa,Regione Liguria,16100
1008,CHIARAVAGNA 5/BUXIO,,44.435867,8.854299,,,Via Chiaravagna,Genoa,Regione Liguria,16100
1009,PIAZZA ARRIVABENE/,,44.433430,8.854066,,,Piazza Silvio Arrivabene,Genoa,Regione Liguria,16100
1010,ARRIVABENE/,,44.431179,8.853298,,,Via Giovanni Arrivabene,Genoa,Regione Liguria,16100
1013,CORONATA 1/,,44.418118,8.875491,,,Via Coronata,Genoa,Regione Liguria,16100
1014,CORONATA 2/CALASANZIO,,44.418991,8.875332,,,Via Coronata,Genoa,Regione Liguria,16100
1015,CORONATA 3/PADRE UMILE,,44.421032,8.876990,,,Via Coronata,Genoa,Regione Liguria,16100
1016,CORONATA 4/SAN RAFFAELE,,44.423401,8.876633,,,Via Coronata,Genoa,Regione Liguria,16100
1017,MONTE GUANO 1/SANTUARIO,,44.426350,8.877063,,,Via Monte Guano,Genoa,Regione Liguria,16100
1018,MONTE GUANO 2/SAN GIACOMO,,44.426910,8.873973,,,Via Monte Guano,Genoa,Regione Liguria,16100
1019,MONTE GUANO 3/CIMITERO,,44.428589,8.870254,,,Via al Forte Monte Guano,Genoa,Regione Liguria,16100
1020,MONTE GUANO 4/ZINGARELLO,,44.431488,8.870799,,,Via al Forte Monte Guano,Genoa,Regione Liguria,16100
1021,MONTE GUANO 5/PURGATORIO,,44.432140,8.873051,,,Via al Forte Monte Guano,Genoa,Regione Liguria,16100
1022,TESTA DI CAVALLO/CAPOLINEA,,44.433506,8.874902,,,Via al Forte Monte Guano,Genoa,Regione Liguria,16100
1023,MONTE GUANO 1/PURGATORIO,,44.432117,8.872909,,,Via al Forte Monte Guano,Genoa,Regione Liguria,16100
1024,MONTE GUANO 2/ZINGARELLO,,44.431496,8.870593,,,Via al Forte Monte Guano,Genoa,Regione Liguria,16100
10250,TERRE ROSSE 1/NASCHE,,44.419453,9.006534,,,Via delle Terre Rosse,Genoa,Regione Liguria,16100
10251,TERRE ROSSE 2/,,44.420574,9.009413,,,Via delle Terre Rosse,Genoa,Regione Liguria,16100
10252,TERRE ROSSE 3/,,44.419533,9.010999,,,Via delle Terre Rosse,Genoa,Regione Liguria,16100
10253,TERRE ROSSE 4/,,44.419121,9.011700,,,Via delle Terre Rosse,Genoa,Regione Liguria,16100
10254,TERRE ROSSE 5/,,44.418663,9.010119,,,Via delle Terre Rosse,Genoa,Regione Liguria,16100
10255,PREMANICO 1/,,44.416042,9.006897,,,Via Superiore Premanico,Genoa,Regione Liguria,16100
10256,PREMANICO/CHIESA,,44.416473,9.007483,,,Via Superiore Premanico,Genoa,Regione Liguria,16100
10257,PREMANICO 2/,,44.416161,9.007031,,,Via Superiore Premanico,Genoa,Regione Liguria,16100
10258,TERRE ROSSE 1/,,44.418503,9.010130,,,Via delle Terre Rosse,Genoa,Regione Liguria,16100
10259,TERRE ROSSE 2/,,44.419220,9.011864,,,Via delle Terre Rosse,Genoa,Regione Liguria,16100
1026,MONTE GUANO 3/SAN GIACOMO,,44.426849,8.873981,,,Via Monte Guano,Genoa,Regione Liguria,16100
10260,TERRE ROSSE 3/,,44.419643,9.011057,,,Via delle Terre Rosse,Genoa,Regione Liguria,16100
10261,TERRE ROSSE 4/,,44.420704,9.009495,,,Via delle Terre Rosse,Genoa,Regione Liguria,16100
10262,TERRE ROSSE 5/NASCHE,,44.419594,9.006590,,,Via delle Terre Rosse,Genoa,Regione Liguria,16100
10263,BANCHELLE/,,44.433231,8.950728,,,Via delle Banchelle,Genoa,Regione Liguria,16100
10264,BANCHELLE 3/,,44.430988,8.955449,,,Via delle Gavette,Genoa,Regione Liguria,16100
10265,GAVETTE 1/,,44.432312,8.956571,,,Via delle Gavette,Genoa,Regione Liguria,16100
10266,GAVETTE 2/,,44.433205,8.958248,,,Via delle Gavette,Genoa,Regione Liguria,16100
10267,GAVETTE 3/,,44.433964,8.958227,,,Via delle Gavette,Genoa,Regione Liguria,16100
10268,GAVETTE 4/,,44.434620,8.958212,,,Via delle Gavette,Genoa,Regione Liguria,16100
10269,GAVETTE/,,44.433826,8.959271,,,Via delle Gavette,Genoa,Regione Liguria,16100
1027,MONTE GUANO 4/SANTUARIO,,44.426266,8.877079,,,Via Monte Guano,Genoa,Regione Liguria,16100
10270,GAVETTE 1/,,44.434731,8.958351,,,Via delle Gavette,Genoa,Regione Liguria,16100
10271,GAVETTE 2/,,44.433975,8.958138,,,Via delle Gavette,Genoa,Regione Liguria,16100
10272,GAVETTE 3/,,44.433235,8.958179,,,Via delle Gavette,Genoa,Regione Liguria,16100
10273,GAVETTE 4/,,44.432243,8.956299,,,Via delle Gavette,Genoa,Regione Liguria,16100
10274,BANCHELLE 1/,,44.431145,8.955445,,,Via delle Gavette,Genoa,Regione Liguria,16100
10275,TORRAZZA 2/,,44.431503,8.788742,,,Via della Torrazza,Genoa,Regione Liguria,16100
10276,TORRAZZA 6/,,44.435833,8.789310,,,Via della Torrazza,Genoa,Regione Liguria,16100
10277,TORRAZZA 7/,,44.440243,8.791194,,,Via Superiore della Torrazza,Genoa,Regione Liguria,16100
10278,TORRAZZA 3/,,44.435730,8.789181,,,Via della Torrazza,Genoa,Regione Liguria,16100
10279,TORRAZZA 7/,,44.431561,8.788742,,,Via della Torrazza,Genoa,Regione Liguria,16100
1028,CORONATA 1/SAN RAFFAELE,,44.423306,8.876439,,,Via Coronata,Genoa,Regione Liguria,16100
10280,AIRAGHI/CORDANIERI,,44.427578,8.786617,,,Via Cesare Airaghi,Genoa,Regione Liguria,16100
10281,VILLINI NEGRONE 2/,,44.429195,8.785233,,,Via Villini Ambrogio Negrone,Genoa,Regione Liguria,16100
10282,VILLINI NEGRONE 3/,,44.429531,8.785089,,,Via Villini Ambrogio Negrone,Genoa,Regione Liguria,16100
10283,VILLINI NEGRONE 4/,,44.429787,8.786075,,,Via Villini Ambrogio Negrone,Genoa,Regione Liguria,16100
10284,VILLINI NEGRONE 5/,,44.429577,8.785020,,,Via Villini Ambrogio Negrone,Genoa,Regione Liguria,16100
10285,VILLINI NEGRONE 6/,,44.429211,8.785140,,,Via Villini Ambrogio Negrone,Genoa,Regione Liguria,16100
10286,BIGNAMI/,,44.427460,8.784130,,,Piazza Giuseppe Bignami,Genoa,Regione Liguria,16100
10287,DANDOLO/JORI,,44.431679,8.892430,,,Via Enrico Dandolo,Genoa,Regione Liguria,16100
10288,PIOMBELLI 1/,,44.432682,8.895410,,,Via Sergio Piombelli,Genoa,Regione Liguria,16100
10289,PIOMBELLI 2/,,44.433132,8.896914,,,Via Sergio Piombelli,Genoa,Regione Liguria,16100
1029,CORONATA 2/PADRE UMILE,,44.420803,8.876841,,,Via Coronata,Genoa,Regione Liguria,16100
10290,PIOMBELLI 4/,,44.433731,8.898093,,,Via Sergio Piombelli,Genoa,Regione Liguria,16100
10291,PIOMBELLI/CAPOLINEA,,44.433765,8.896919,,,Via Sergio Piombelli,Genoa,Regione Liguria,16100
10292,PIOMBELLI 1/,,44.433659,8.898086,,,Via Sergio Piombelli,Genoa,Regione Liguria,16100
10293,PIOMBELLI 3/,,44.433212,8.896932,,,Via Sergio Piombelli,Genoa,Regione Liguria,16100
10294,PIOMBELLI 4/,,44.432751,8.895382,,,Via Sergio Piombelli,Genoa,Regione Liguria,16100
10295,MANSUETO/CAPOLINEA,,44.431530,8.897154,,,Via Mansueto,Genoa,Regione Liguria,16100
10296,MANSUETO 2/,,44.431015,8.897937,,,Via Mansueto,Genoa,Regione Liguria,16100
10297,ZELLA/,,44.430328,8.897064,,,Via Zella,Genoa,Regione Liguria,16100
10298,ARIOSTO/VIRGILIO,,44.429596,8.895510,,,Via Lodovico Ariosto,Genoa,Regione Liguria,16100
10299,MANSUETO 1/,,44.431431,8.894496,,,Via Mansueto,Genoa,Regione Liguria,16100
1030,CORONATA 3/CALASANZIO,,44.418854,8.875036,,,Via Coronata,Genoa,Regione Liguria,16100
10300,MANSUETO 2/,,44.431633,8.894946,,,Via Mansueto,Genoa,Regione Liguria,16100
10301,MANSUETO 4/,,44.430424,8.896729,,,Via Mansueto,Genoa,Regione Liguria,16100
10302,MANSUETO 5/,,44.430725,8.898596,,,Via Mansueto,Genoa,Regione Liguria,16100
10303,MANSUETO 6/,,44.431072,8.897916,,,Via Mansueto,Genoa,Regione Liguria,16100
10304,SANT'ANTONINO/,,44.431969,8.943144,,,Salita Sant'Antonino,Genoa,Regione Liguria,16100
10305,SANT'ANTONINO 1/,,44.432182,8.944069,,,Salita Sant'Antonino,Genoa,Regione Liguria,16100
10306,SANT'ANTONINO 2/,,44.430168,8.945315,,,Salita Sant'Antonino,Genoa,Regione Liguria,16100
10307,SANT'ANTONINO 3/,,44.429749,8.946009,,,Salita Sant'Antonino,Genoa,Regione Liguria,16100
10308,RESASCO/,,44.428272,8.949460,,,Piazzale Giovanni Battista Resasco,Genoa,Regione Liguria,16100
10309,SANT'ANTONINO 1/,,44.429787,8.945914,,,Salita Sant'Antonino,Genoa,Regione Liguria,16100
1031,CORONATA 4/,,44.417988,8.875587,,,Via Coronata,Genoa,Regione Liguria,16100
10310,SANT'ANTONINO 2/,,44.430119,8.945366,,,Salita Sant'Antonino,Genoa,Regione Liguria,16100
10311,SANT'ANTONINO 3/,,44.432251,8.944031,,,Salita Sant'Antonino,Genoa,Regione Liguria,16100
10313,REBUCCHI 1/,,44.444099,8.886909,,,Via dei Rebucchi,Genoa,Regione Liguria,16100
10314,REBUCCHI 3/,,44.444565,8.886010,,,Via dei Rebucchi,Genoa,Regione Liguria,16100
10315,REBUCCHI 5/,,44.445091,8.884888,,,Via dei Rebucchi,Genoa,Regione Liguria,16100
10316,REBUCCHI 9/,,44.447319,8.884782,,,Via dei Rebucchi,Genoa,Regione Liguria,16100
10317,REBUCCHI 11/,,44.447739,8.882705,,,Via della Costiera,Genoa,Regione Liguria,16100
10318,REBUCCHI 13/,,44.448700,8.881557,,,Via della Costiera,Genoa,Regione Liguria,16100
10319,REBUCCHI 12/,,44.447689,8.882581,,,Via della Costiera,Genoa,Regione Liguria,16100
1032,ANSALDO/MASSENA,,44.416012,8.876492,,,Via Giovanni Ansaldo,Genoa,Regione Liguria,16100
10320,REBUCCHI 10/,,44.447205,8.884769,,,Via dei Rebucchi,Genoa,Regione Liguria,16100
10321,REBUCCHI 6/,,44.445004,8.884747,,,Via dei Rebucchi,Genoa,Regione Liguria,16100
10322,REBUCCHI 4/,,44.444447,8.886042,,,Via dei Rebucchi,Genoa,Regione Liguria,16100
10323,REBUCCHI 2/,,44.443996,8.886833,,,Via dei Rebucchi,Genoa,Regione Liguria,16100
10325,MINORETTI/,,44.409897,8.982146,,,Via Carlo Dalmazio Minoretti,Genoa,Regione Liguria,16100
10326,SAPETO 1/,,44.409000,8.982342,,,Via Giuseppe Sapeto,Genoa,Regione Liguria,16100
10327,SAPETO 2/,,44.407761,8.981925,,,Via Giuseppe Sapeto,Genoa,Regione Liguria,16100
10328,SAPETO 4/,,44.407780,8.980886,,,Via Giuseppe Sapeto,Genoa,Regione Liguria,16100
10329,SAPETO 1/,,44.407738,8.981013,,,Via Giuseppe Sapeto,Genoa,Regione Liguria,16100
10330,SAPETO 3/,,44.407780,8.982406,,,Via Giuseppe Sapeto,Genoa,Regione Liguria,16100
10331,SAPETO 4/,,44.409130,8.982112,,,Via Carlo Dalmazio Minoretti,Genoa,Regione Liguria,16100
10332,CAMPASSO 1/,,44.420708,8.890566,,,Via del Campasso,Genoa,Regione Liguria,16100
10333,PELLEGRINI/,,44.421177,8.891755,,,Via Antonio Pellegrini,Genoa,Regione Liguria,16100
10334,SPAVENTA 1/,,44.421837,8.891858,,,Via Silvio Spaventa,Genoa,Regione Liguria,16100
10335,SPAVENTA 2/,,44.422512,8.891994,,,Via Silvio Spaventa,Genoa,Regione Liguria,16100
10336,CAMPASSO 2/,,44.420757,8.890518,,,Via del Campasso,Genoa,Regione Liguria,16100
10337,MONTE FASCE 1/,,44.405952,8.998030,,,Via Monte Fasce,Genoa,Regione Liguria,16100
10338,MONTE FASCE 2/,,44.406761,8.996262,,,Via Monte Fasce,Genoa,Regione Liguria,16100
10339,MONTE FASCE 3/,,44.408600,8.996012,,,Via Monte Fasce,Genoa,Regione Liguria,16100
1034,PERRONE 1/MASSENA,,44.416481,8.876672,,,Corso Ferdinando Maria Perrone,Genoa,Regione Liguria,16100
10340,MONTE FASCE 4/,,44.407970,8.997082,,,Via Monte Fasce,Genoa,Regione Liguria,16100
10341,MONTE FASCE 5/,,44.408192,9.001105,,,Via Monte Fasce,Genoa,Regione Liguria,16100
10342,MONTE FASCE 6/,,44.407822,9.003626,,,Via Monte Fasce,Genoa,Regione Liguria,16100
10343,MONTE FASCE/,,44.408161,9.009859,,,Via Monte Fasce,Genoa,Regione Liguria,16100
10344,MONTE FASCE 3/,,44.407986,9.003566,,,Via Monte Fasce,Genoa,Regione Liguria,16100
10345,MONTE FASCE 4/,,44.408340,9.001073,,,Via Monte Fasce,Genoa,Regione Liguria,16100
10346,MONTE FASCE 5/,,44.408119,8.997079,,,Via Monte Fasce,Genoa,Regione Liguria,16100
10347,MONTE FASCE 6/,,44.408657,8.995893,,,Via Monte Fasce,Genoa,Regione Liguria,16100
10348,MONTE FASCE 7/,,44.406624,8.996002,,,Via Monte Fasce,Genoa,Regione Liguria,16100
10349,MONTE FASCE 8/,,44.405762,8.998156,,,Via Monte Fasce,Genoa,Regione Liguria,16100
1035,PERRONE 2/BIANCHI,,44.418499,8.878608,,,Corso Ferdinando Maria Perrone,Genoa,Regione Liguria,16100
10350,LANFRANCO/,,44.404247,9.012228,,,Via Alberico Lanfranco,Genoa,Regione Liguria,16100
10351,LANFRANCO 1/,,44.403698,9.009071,,,Via Alberico Lanfranco,Genoa,Regione Liguria,16100
